order_id,restaurant_id,customer_id,carrier_id,customer_lat,customer_lon,date,time,is_peak_time,is_weekend,carrier_vehicle,shopping_cart,coupon_discount,order_price,shortest_distance_to_customer,travel_time_minutes,delivery_charges
ORD027210,REST1046,CUST03492,COUR3492,-37.8133588,144.9386603,2020-07-12,03:53:24,0,1,Bike,"[('fried rice', 2), ('fish fingers', 1), ('beef chilli', 2)]",0,51.54,1749,9,4.5473
ORD184211,REST1034,CUST05128,COUR2690,-37.8219347,144.9554417,2020-01-04,23:28:21,0,1,Car,"[('butter chicken', 1), ('manchurian', 1)]",0,34.98,2526,6,3.9081
ORD003542,REST1046,CUST10956,COUR0632,-37.8001257,144.9515047,2020-02-05,19:11:12,1,0,Car,"[('chicken curry', 3), ('fried rice', 1)]",10,27.0,3872,9,4.7367
ORD345584,REST1046,CUST10007,COUR1872,-37.8041384,145.0021403,2020-03-02,14:10:32,0,0,Bike,"[('murgh ghee roast', 2), ('chicken curry', 3), ('draught beer', 3), ('fish fingers', 3)]",0,115.34,7081,35,6.2313
ORD077387,REST1046,CUST12722,COUR3943,-37.8149732,144.9273875,2020-12-23,14:54:03,0,0,Car,"[('murgh ghee roast', 2), ('fried rice', 1), ('beef chilli', 1)]",10,30.761999999999997,2070,5,2.9509
ORD197851,REST1046,CUST01781,COUR0334,-37.799838,144.9622065,2020-04-07,11:40:13,0,0,Car,"[('french fries', 2), ('fried rice', 1), ('murgh ghee roast', 2)]",0,61.66,4643,11,5.6034
ORD241812,REST1455,CUST02873,COUR3589,-37.816849100000006,144.9789949,2020-09-18,11:36:15,0,0,Car,"[('sea food', 1), ('chicken stew', 1), ('egg roast', 2)]",0,78.55,2328,6,3.0416
ORD321117,REST1046,CUST06135,COUR3984,-37.8065349,144.95608049999996,2020-09-14,18:07:54,1,0,Bike,"[('french fries', 1), ('murgh ghee roast', 3)]",45,24.59,3782,19,5.8552
ORD241054,REST1046,CUST12548,COUR2409,-37.8188014,144.9531468,2020-05-23,03:49:27,0,1,Motorbike,"[('beef chilli', 2), ('chicken curry', 1), ('fish fingers', 3)]",0,80.74,1976,4,4.4799
ORD274007,REST0348,CUST07042,COUR4047,-37.8039799,144.9583706,2020-10-19,10:56:42,0,0,Car,"[('dal makhani', 3), ('mutton curry', 2)]",40,38.538000000000004,2797,7,3.3017
ORD135198,REST1034,CUST08238,COUR4248,-37.8202843,144.9577685,2020-06-22,12:47:28,1,0,Motorbike,"[('mango lassi', 3), ('butter chicken', 1), ('manchurian', 1)]",40,37.062,2678,5,4.9669
ORD220365,REST0931,CUST12850,COUR0582,-37.80015570000001,144.93440880000003,2020-08-01,15:05:56,0,1,Bike,"[('masala dosa', 3), ('tea', 3), ('idli', 2), ('filter coffee', 3)]",45,116.51799999999999,5882,29,6.7442
ORD336078,REST1034,CUST13577,COUR3948,-37.8168402,144.9355778,2020-12-23,02:54:03,0,0,Car,"[('butter chicken', 2), ('paneer lababdar', 1)]",0,59.04,686,2,2.8119
ORD205253,REST1034,CUST01206,COUR3265,-37.8005249,144.9908738,2020-10-01,15:49:27,0,0,Motorbike,"[('manchurian', 1), ('palak paneer', 1), ('paneer lababdar', 1), ('butter chicken', 2)]",40,56.178000000000004,5872,12,3.9629
ORD300300,REST1455,CUST13288,COUR3787,-37.8221817,144.97857209999995,2020-01-02,04:29:00,0,0,Motorbike,"[('appam', 2), ('chicken stew', 1)]",45,26.928,3072,6,3.4072
ORD286901,REST0931,CUST04541,COUR0343,-37.8156862,144.95019430000005,2020-05-08,19:50:46,1,0,Motorbike,"[('tea', 1), ('filter coffee', 3), ('chole', 3)]",0,139.46,4557,9,8.23935
ORD074409,REST1034,CUST00638,COUR0756,-37.8038083,144.9969606,2020-09-09,10:29:00,0,0,Motorbike,"[('chilli chicken', 2), ('butter chicken', 3)]",40,60.108000000000004,6199,12,3.6951
ORD053922,REST1046,CUST00439,COUR3551,-37.8185796,144.9533313,2020-03-23,14:46:09,0,0,Bike,"[('draught beer', 3), ('beef chilli', 2)]",0,35.02,4124,21,4.434
ORD290092,REST1455,CUST09890,COUR2291,-37.80591610000001,144.98356769999995,2020-02-11,17:36:15,0,0,Bike,"[('chicken stew', 1), ('fish', 2), ('beef fry', 1), ('appam', 2)]",0,84.91,1577,8,3.6046
ORD224303,REST0348,CUST07762,COUR1485,-37.81336870000001,144.9650409,2020-07-15,22:44:50,0,0,Car,"[('butter chicken', 2), ('dal makhani', 2), ('lassi', 2), ('makke ki roti', 1)]",40,52.961999999999996,2458,6,3.0445
ORD058549,REST0348,CUST13714,COUR0056,-37.8155869,144.96661,2020-02-13,06:39:33,0,0,Motorbike,"[('dal makhani', 1), ('mutton curry', 2), ('chicken tikka', 1), ('makke ki roti', 3)]",45,62.211000000000006,2513,5,1.5503
ORD252219,REST1455,CUST10922,COUR2548,-37.8002433,144.9716936,2020-09-29,17:52:05,0,0,Motorbike,"[('beef fry', 2), ('fish', 3), ('chicken stew', 3)]",20,100.552,328,1,2.5546
ORD206363,REST0931,CUST02431,COUR1524,-37.8182242,144.9642994,2020-02-16,20:14:30,0,1,Motorbike,"[('vada', 1), ('idli', 1), ('masala dosa', 1)]",10,58.148999999999994,3015,6,4.0825
ORD136302,REST0348,CUST05721,COUR3765,-37.8140304,144.9396809,2020-01-05,02:54:03,0,1,Bike,"[('mutton curry', 2), ('paneer tikka', 1)]",0,39.32,1261,6,6.274049999999999
ORD172912,REST0348,CUST09931,COUR0576,-37.8177425,144.95105800000005,2020-04-24,05:32:18,0,0,Bike,"[('chole bhature', 3), ('mutton curry', 3), ('kheer', 2)]",0,103.04,1016,5,3.1102
ORD326062,REST0931,CUST06551,COUR4278,-37.8245718,144.984638,2020-01-08,20:18:27,0,0,Bike,"[('chole', 3), ('masala dosa', 2), ('vada', 2), ('butter masala dosa', 2)]",0,176.28,3508,18,2.16595
ORD346606,REST1046,CUST06564,COUR1420,-37.8251248,144.98470369999995,2020-05-18,17:48:07,0,0,Motorbike,"[('draught beer', 3), ('fish fingers', 2), ('chicken curry', 3)]",40,47.076,4703,9,3.4363
ORD311571,REST1455,CUST03424,COUR2937,-37.819369,144.9902648,2020-08-07,05:12:31,0,0,Bike,"[('sea food', 2), ('appam', 2), ('egg roast', 1), ('fish', 3)]",0,105.5,3359,17,4.8145
ORD250196,REST1034,CUST12594,COUR3649,-37.8080901,144.97510780000005,2020-07-05,08:06:35,0,1,Car,"[('paneer lababdar', 2), ('butter chicken', 1)]",0,43.86,3819,9,4.5947
ORD169648,REST0931,CUST05422,COUR2695,-37.8139544,144.96358869999997,2020-03-27,22:52:44,0,0,Motorbike,"[('filter coffee', 1), ('tea', 1), ('vada', 2), ('butter masala dosa', 1)]",0,92.49,2617,5,3.2111
ORD346180,REST0348,CUST12979,COUR4842,-37.8119211,144.9522565,2020-03-25,14:10:32,0,0,Bike,"[('butter chicken', 1), ('dal makhani', 3), ('kheer', 2), ('chicken tikka', 1)]",20,73.184,1799,9,3.4807
ORD197525,REST0348,CUST11939,COUR3553,-37.8132093,145.0144442,2020-07-12,00:23:44,0,1,Motorbike,"[('chole bhature', 3), ('chicken tikka', 1), ('paan ice cream', 2), ('lassi', 3)]",10,101.925,7187,14,5.4135
ORD015705,REST1455,CUST02072,COUR2856,-37.8005373,145.0089533,2020-10-07,22:25:03,0,0,Bike,"[('fish', 3), ('appam', 1), ('chicken stew', 3), ('chicken curry', 2)]",0,146.0,3578,18,4.5182
ORD173796,REST0348,CUST09397,COUR4829,-37.8112627,144.9618758,2020-04-19,18:59:20,1,1,Motorbike,"[('paan ice cream', 3), ('chicken tikka', 2)]",10,64.08,2366,5,5.821000000000001
ORD142113,REST1455,CUST02381,COUR1141,-37.8218713,144.95064159999995,2020-09-28,16:48:47,0,0,Bike,"[('chicken curry', 3), ('chicken stew', 3)]",0,125.37,3970,20,4.7977
ORD244000,REST1034,CUST11140,COUR3268,-37.8074349,144.9447892,2020-03-29,13:19:07,1,1,Motorbike,"[('paneer lababdar', 1), ('manchurian', 3), ('butter chicken', 1)]",0,65.02,1625,3,5.3245
ORD049196,REST1034,CUST08230,COUR4040,-37.8202414,144.9576895,2020-09-26,13:30:59,1,1,Car,"[('mango lassi', 3), ('palak paneer', 1), ('paneer lababdar', 1), ('chilli chicken', 2)]",0,86.66,2691,6,5.5746
ORD185437,REST0931,CUST10019,COUR4481,-37.8103255,145.0019927,2020-06-27,17:12:31,0,1,Motorbike,"[('filter coffee', 2), ('chole', 3)]",0,103.74,3108,6,4.2772
ORD113835,REST0931,CUST00902,COUR3142,-37.8269626,144.9829125,2020-04-05,13:42:51,1,1,Bike,"[('idli', 1), ('tea', 3), ('filter coffee', 1), ('chole', 3)]",0,147.67,3840,19,7.0674
ORD179081,REST1034,CUST06509,COUR3264,-37.8248949,144.9828503,2020-01-23,16:36:55,0,0,Motorbike,"[('mango lassi', 3), ('dehati chicken', 3), ('chilli chicken', 2)]",40,41.856,5319,11,5.8858500000000005
ORD322062,REST1455,CUST00281,COUR2155,-37.7914845,144.9367602,2020-08-02,06:55:23,0,1,Motorbike,"[('beef fry', 3), ('appam', 3), ('chicken curry', 1)]",40,69.438,4445,9,4.4682
ORD309660,REST1034,CUST00094,COUR4866,-37.8164671,144.9972205,2020-09-19,21:17:48,0,1,Motorbike,"[('manchurian', 2), ('mango lassi', 1)]",0,29.41,6283,13,5.0603
ORD146669,REST0348,CUST04184,COUR1622,-37.8261978,144.9860149,2020-07-16,04:40:52,0,0,Motorbike,"[('lassi', 3), ('chicken tikka', 1), ('dal makhani', 1), ('kheer', 3)]",20,73.232,4637,9,3.8294
ORD044957,REST1034,CUST09964,COUR4254,-37.8037319,144.9797286,2020-12-13,06:47:28,0,1,Bike,"[('dehati chicken', 1), ('manchurian', 3)]",0,36.39,4784,24,3.1121
ORD007785,REST1034,CUST00396,COUR1886,-37.8217211,144.9865224,2020-09-30,21:09:53,0,0,Car,"[('chilli chicken', 1), ('palak paneer', 3), ('manchurian', 3)]",40,70.05,5385,13,4.1444
ORD224824,REST0348,CUST10831,COUR3664,-37.8026086,144.957187,2020-07-24,12:39:33,1,0,Bike,"[('paneer tikka', 3), ('chole bhature', 2), ('paan ice cream', 3)]",0,128.86,2982,15,5.4069
ORD095886,REST0348,CUST12264,COUR2985,-37.8200114,144.96135790000002,2020-05-31,19:07:15,1,1,Motorbike,"[('lassi', 2), ('kheer', 3), ('chicken tikka', 3), ('chole bhature', 3)]",20,109.76799999999999,2112,4,5.8127
ORD055003,REST1034,CUST03479,COUR3029,-37.8026269,144.9819502,2020-03-16,09:49:27,0,0,Bike,"[('paneer lababdar', 2), ('palak paneer', 1)]",20,34.775999999999996,4840,24,5.2045
ORD323172,REST1455,CUST09649,COUR2088,-37.80226070000001,145.0030866,2020-02-29,15:25:42,0,1,Car,"[('fish', 1), ('appam', 2), ('chicken stew', 1), ('egg roast', 3)]",0,123.18,2960,7,4.5448
ORD224595,REST0348,CUST08923,COUR2454,-37.81352,144.9685284,2020-01-23,09:25:42,0,0,Bike,"[('lassi', 1), ('makke ki roti', 1), ('kheer', 3)]",0,69.71,2732,14,3.6966
ORD140924,REST1034,CUST11288,COUR2410,-37.8086347,144.9548232,2020-04-05,07:19:07,0,1,Car,"[('manchurian', 2), ('butter chicken', 2), ('palak paneer', 2), ('dehati chicken', 2)]",0,130.0,1901,5,4.1102
ORD336740,REST0931,CUST05951,COUR2321,-37.8205146,144.9661206,2020-08-07,10:01:19,0,0,Motorbike,"[('masala dosa', 2), ('filter coffee', 2), ('vada', 2)]",40,81.264,3259,7,4.9935
ORD310463,REST0931,CUST05079,COUR4480,-37.820181700000006,144.957557,2020-02-12,18:43:30,1,0,Car,"[('tea', 2), ('vada', 1)]",0,55.43,3636,9,5.0096
ORD214858,REST1046,CUST09684,COUR3316,-37.82345220000001,144.9846337,2020-01-14,15:21:45,0,0,Bike,"[('fried rice', 1), ('murgh ghee roast', 3)]",40,20.934,4723,24,5.0543
ORD210771,REST1046,CUST03179,COUR1370,-37.8105833,144.93180700000005,2020-10-07,23:48:07,0,0,Motorbike,"[('french fries', 1), ('fish fingers', 2), ('murgh ghee roast', 2)]",20,58.976000000000006,3468,7,3.2382
ORD274077,REST1046,CUST13755,COUR1334,-37.8131494,144.9512706,2020-08-30,18:00:00,1,1,Bike,"[('beef chilli', 2), ('fried rice', 1), ('chicken curry', 1), ('french fries', 3)]",0,85.42,2623,13,6.4401
ORD116890,REST1455,CUST00369,COUR0630,-37.8178498,144.9746051,2020-03-19,22:29:00,0,0,Motorbike,"[('chicken curry', 2), ('chicken stew', 1), ('egg roast', 3), ('appam', 2)]",40,93.39,2316,5,2.8456
ORD249338,REST1455,CUST01219,COUR3763,-37.8042359,144.9923657,2020-10-25,10:48:47,0,1,Bike,"[('beef fry', 1), ('chicken curry', 1), ('sea food', 2), ('appam', 2)]",45,52.151,2139,11,4.878
ORD044899,REST1034,CUST04703,COUR0428,-37.8045393,144.9281603,2020-02-04,04:17:08,0,0,Car,"[('chilli chicken', 3), ('palak paneer', 2), ('butter chicken', 3)]",40,97.116,1637,4,2.7339
ORD179408,REST1455,CUST08677,COUR4137,-37.8030895,144.9620835,2020-03-02,12:07:54,1,0,Car,"[('appam', 1), ('fish', 2), ('beef fry', 1), ('chicken curry', 2)]",0,91.56,1413,3,4.6228
ORD316023,REST1034,CUST08230,COUR3673,-37.8202414,144.9576895,2020-12-20,12:27:41,1,1,Bike,"[('manchurian', 2), ('mango lassi', 1), ('chilli chicken', 2)]",0,55.37,2691,13,6.218
ORD315493,REST1455,CUST03821,COUR2181,-37.80510020000001,145.0150051,2020-09-23,14:54:03,0,0,Car,"[('egg roast', 3), ('fish', 3), ('chicken stew', 2)]",45,73.964,3996,10,3.7776
ORD041229,REST1455,CUST00756,COUR0140,-37.8144221,144.96135800000005,2020-02-09,03:37:34,0,1,Car,"[('chicken stew', 3), ('sea food', 2), ('fish', 2), ('egg roast', 2)]",0,153.0,2472,6,4.3859
ORD285402,REST0348,CUST12201,COUR4773,-37.8036711,144.97304630000005,2020-02-28,03:29:40,0,0,Bike,"[('paan ice cream', 2), ('chole bhature', 2)]",45,33.341,3795,19,4.0405
ORD253983,REST1046,CUST04931,COUR0722,-37.8138638,144.9725823,2020-11-26,16:29:00,0,0,Car,"[('draught beer', 1), ('french fries', 1)]",0,24.04,3852,9,3.6534
ORD314610,REST0348,CUST12601,COUR4205,-37.824402,144.9630551,2020-01-31,14:30:19,0,0,Car,"[('kheer', 1), ('chole bhature', 1), ('makke ki roti', 3), ('paneer tikka', 3)]",40,87.28200000000001,2587,6,2.9785
ORD030050,REST1034,CUST07720,COUR0324,-37.7996745,144.95532319999995,2020-09-28,12:27:41,1,0,Car,"[('paneer lababdar', 3), ('palak paneer', 3), ('mango lassi', 3), ('chilli chicken', 1)]",0,141.5,2814,7,7.360049999999998
ORD174118,REST0931,CUST09903,COUR2819,-37.817575700000006,144.9671415,2020-03-07,07:30:59,0,1,Bike,"[('upma', 1), ('chole', 2)]",0,64.41,2735,14,4.85
ORD154104,REST1034,CUST03033,COUR0000,-37.800914,144.965329,2020-03-23,02:14:30,0,0,Bike,"[('palak paneer', 1), ('paneer lababdar', 2), ('manchurian', 1), ('chilli chicken', 2)]",20,63.736000000000004,3523,18,2.23715
ORD080063,REST0348,CUST11489,COUR2722,-37.8082869,144.9836428,2020-06-19,21:53:24,0,0,Motorbike,"[('makke ki roti', 2), ('kheer', 1), ('mutton curry', 3)]",20,71.328,4443,9,3.6721
ORD337873,REST1034,CUST08039,COUR1550,-37.81948120000001,145.00771880000005,2020-09-26,13:38:54,1,1,Motorbike,"[('mango lassi', 1), ('butter chicken', 3), ('paneer lababdar', 1), ('dehati chicken', 1)]",40,59.028,7182,14,6.8545
ORD038210,REST1455,CUST03907,COUR4323,-37.8199098,144.9436993,2020-10-11,11:56:02,0,1,Bike,"[('egg roast', 2), ('sea food', 3), ('appam', 2)]",10,102.537,4172,21,5.9067
ORD325531,REST0348,CUST00574,COUR4616,-37.817032,144.96507119999995,2020-05-18,04:01:19,0,0,Car,"[('kheer', 3), ('makke ki roti', 1), ('paneer tikka', 3)]",0,113.74,2425,6,5.3136
ORD100698,REST1046,CUST01239,COUR4997,-37.8001778,144.9816496,2020-06-20,17:24:23,0,1,Car,"[('fried rice', 3), ('draught beer', 2)]",20,29.184,5760,14,5.0833
ORD007293,REST1455,CUST12343,COUR3934,-37.8117664,144.96381609999997,2020-12-11,14:06:35,0,0,Motorbike,"[('beef fry', 1), ('appam', 2)]",10,41.067,1990,4,2.9455
ORD032972,REST1046,CUST01932,COUR0658,-37.8240335,144.9737726,2020-09-06,15:45:29,0,1,Motorbike,"[('murgh ghee roast', 2), ('fish fingers', 1), ('draught beer', 1)]",0,43.06,3701,7,4.5244
ORD257999,REST0931,CUST04042,COUR1600,-37.8193708,144.9818883,2020-12-14,05:44:10,0,0,Motorbike,"[('butter masala dosa', 2), ('chole', 1), ('filter coffee', 2)]",0,78.56,2784,6,3.4049
ORD126515,REST1455,CUST07923,COUR3099,-37.8136487,144.9730863,2020-05-27,07:11:12,0,0,Motorbike,"[('chicken curry', 3), ('sea food', 3), ('appam', 1)]",10,107.09100000000001,1701,3,2.9219
ORD025586,REST0348,CUST03507,COUR3943,-37.81411420000001,144.9388715,2020-05-13,15:41:32,0,0,Car,"[('paan ice cream', 3), ('chole bhature', 3), ('paneer tikka', 1)]",0,108.47,1364,3,3.0278
ORD209934,REST1034,CUST10623,COUR1859,-37.8056686,144.9572478,2020-08-08,14:26:22,0,1,Motorbike,"[('chilli chicken', 3), ('manchurian', 2)]",10,53.478,2580,5,4.4537
ORD097418,REST0931,CUST06501,COUR0884,-37.8252011,144.982751,2020-05-20,12:07:54,1,0,Bike,"[('filter coffee', 3), ('masala dosa', 2), ('vada', 3), ('idli', 1)]",0,196.48,3662,18,6.1223
ORD190804,REST0931,CUST11274,COUR0385,-37.8254195,144.98139469999995,2020-11-22,14:26:22,0,1,Car,"[('chole', 2), ('tea', 1), ('butter masala dosa', 1)]",10,60.075,3694,9,4.6802
ORD325114,REST1046,CUST06817,COUR2862,-37.80082210000001,144.97229119999997,2020-09-28,19:54:43,1,0,Bike,"[('draught beer', 3), ('murgh ghee roast', 2)]",40,21.864,5185,26,6.1236
ORD250908,REST0348,CUST09604,COUR2274,-37.8127648,144.96412949999996,2020-03-19,19:58:40,1,0,Car,"[('chole bhature', 3), ('makke ki roti', 3)]",0,109.08,2530,6,4.9535
ORD140877,REST0348,CUST13506,COUR3329,-37.8198669,144.9601208,2020-11-24,14:10:32,0,0,Car,"[('chole bhature', 3), ('kheer', 2)]",0,70.37,1992,5,3.2183
ORD038344,REST0348,CUST04450,COUR2921,-37.8221078,144.932693,2020-07-14,22:21:05,0,0,Bike,"[('lassi', 1), ('chole bhature', 3), ('mutton curry', 2)]",0,74.44,2394,12,3.8031
ORD264355,REST1046,CUST06298,COUR3718,-37.8070076,144.95789530000005,2020-05-10,23:48:07,0,1,Bike,"[('draught beer', 2), ('murgh ghee roast', 1), ('fried rice', 2), ('fish fingers', 2)]",0,75.35,3592,18,5.4612
ORD055575,REST1034,CUST02510,COUR3059,-37.81491010000001,144.958935,2020-05-11,00:07:54,0,0,Car,"[('butter chicken', 1), ('palak paneer', 2)]",0,73.44,6523,16,4.2863
ORD192521,REST1034,CUST00424,COUR1093,-37.82163120000001,144.9838567,2020-09-18,15:45:29,0,0,Motorbike,"[('mango lassi', 2), ('chilli chicken', 2)]",20,35.056,5137,10,3.6709
ORD189718,REST0348,CUST04739,COUR2858,-37.8048626,144.92443469999995,2020-08-20,05:36:15,0,0,Bike,"[('chole bhature', 1), ('paneer tikka', 1), ('paan ice cream', 2)]",20,50.776,2895,14,4.5247
ORD013564,REST1455,CUST03460,COUR4087,-37.8207164,144.9935528,2020-03-27,02:18:27,0,0,Motorbike,"[('appam', 1), ('sea food', 3)]",0,56.56,3603,7,3.5084
ORD081307,REST1455,CUST13286,COUR4818,-37.82223079999999,144.9782323,2020-10-07,15:13:50,0,0,Bike,"[('appam', 2), ('sea food', 3), ('beef fry', 3), ('chicken stew', 3)]",10,167.796,3037,15,4.4509
ORD133839,REST1046,CUST12688,COUR3001,-37.8032432,144.9498031,2020-04-20,23:40:13,0,0,Motorbike,"[('murgh ghee roast', 1), ('draught beer', 1), ('french fries', 3), ('fish fingers', 1)]",40,52.614,3493,7,3.6392
ORD240795,REST0348,CUST07947,COUR4198,-37.8131757,144.9739629,2020-09-06,06:23:44,0,1,Motorbike,"[('dal makhani', 1), ('makke ki roti', 1), ('chole bhature', 1)]",0,50.51,3213,6,4.1104
ORD282886,REST1046,CUST05674,COUR4136,-37.813104,144.9374875,2020-05-20,19:19:07,1,0,Car,"[('french fries', 2), ('beef chilli', 1), ('fish fingers', 2), ('murgh ghee roast', 1)]",0,90.87,1786,4,4.7142
ORD290585,REST1455,CUST13188,COUR0887,-37.8194434,144.9768094,2020-04-16,21:33:37,0,0,Bike,"[('egg roast', 1), ('chicken curry', 1), ('chicken stew', 3)]",40,63.263999999999996,2662,13,3.9339999999999997
ORD181924,REST0348,CUST10814,COUR0556,-37.8084651,144.95581330000005,2020-10-14,22:17:08,0,0,Car,"[('makke ki roti', 2), ('chicken tikka', 3), ('paan ice cream', 1), ('kheer', 2)]",10,109.59299999999999,2113,5,3.1426
ORD344107,REST1455,CUST04656,COUR2261,-37.8055815,144.93152680000003,2020-03-06,17:32:18,0,0,Motorbike,"[('beef fry', 2), ('appam', 2)]",40,37.968,4596,9,3.7084
ORD255415,REST0931,CUST02060,COUR3853,-37.803578,144.9539284,2020-02-23,21:53:24,0,1,Car,"[('tea', 2), ('filter coffee', 1)]",0,51.4,2808,7,4.5303
ORD029552,REST0931,CUST13988,COUR4670,-37.81187960000001,144.9564656,2020-02-07,12:47:28,1,0,Motorbike,"[('filter coffee', 1), ('chole', 3), ('masala dosa', 1)]",45,59.02,2902,6,4.9053
ORD078796,REST1455,CUST10650,COUR0784,-37.8137277,145.01201630000003,2020-10-05,23:48:07,0,0,Motorbike,"[('appam', 3), ('fish', 3)]",0,69.42,4666,9,3.4021
ORD326833,REST0348,CUST07053,COUR0741,-37.8018082,144.9568764,2020-06-08,15:09:53,0,0,Motorbike,"[('dal makhani', 2), ('makke ki roti', 3), ('chole bhature', 1), ('butter chicken', 3)]",0,139.68,2853,6,3.1648
ORD030840,REST1034,CUST05700,COUR1511,-37.8160049,144.93952190000005,2020-07-12,16:32:58,0,1,Motorbike,"[('manchurian', 2), ('mango lassi', 2), ('palak paneer', 1), ('chilli chicken', 3)]",0,101.63,610,1,3.7048
ORD227998,REST0931,CUST11328,COUR1649,-37.8170985,144.9679526,2020-04-19,23:04:36,0,1,Car,"[('chole', 2), ('butter masala dosa', 2), ('vada', 2)]",20,86.272,2649,6,4.3552
ORD297092,REST1046,CUST09496,COUR3031,-37.80588970000001,144.9783705,2020-05-25,17:00:39,0,0,Motorbike,"[('murgh ghee roast', 1), ('draught beer', 3), ('chicken curry', 3)]",45,27.198,4910,10,3.2494
ORD118891,REST1034,CUST12587,COUR0219,-37.8186403,144.9534633,2020-01-04,13:58:40,1,1,Bike,"[('palak paneer', 2), ('mango lassi', 1), ('butter chicken', 2)]",0,107.11,2155,11,6.8049
ORD082513,REST0348,CUST12798,COUR0451,-37.7989805,144.9454345,2020-12-06,00:03:57,0,1,Bike,"[('kheer', 2), ('mutton curry', 1)]",0,37.19,2822,14,5.172000000000001
ORD267760,REST1455,CUST01105,COUR1886,-37.8104815,145.015893,2020-06-07,21:13:50,0,1,Car,"[('fish', 1), ('chicken stew', 2), ('sea food', 2)]",45,43.72,4612,11,4.9653
ORD095916,REST1034,CUST06116,COUR1197,-37.8049188,144.9478494,2020-04-04,09:57:21,0,1,Car,"[('butter chicken', 2), ('chilli chicken', 2), ('mango lassi', 2), ('dehati chicken', 2)]",0,104.64,1946,5,4.0326
ORD328632,REST0348,CUST07479,COUR2283,-37.8065078,145.001584,2020-09-16,02:38:14,0,0,Motorbike,"[('makke ki roti', 3), ('paneer tikka', 3), ('lassi', 3)]",45,78.87,6283,13,2.162
ORD267832,REST1455,CUST02409,COUR2199,-37.8077748,144.98215990000003,2020-06-30,15:17:48,0,0,Motorbike,"[('sea food', 1), ('egg roast', 1), ('beef fry', 3)]",0,88.83,1607,3,3.0719
ORD154738,REST1046,CUST07644,COUR1130,-37.8134636,144.9411155,2020-01-29,21:25:42,0,0,Motorbike,"[('beef chilli', 3), ('fried rice', 2)]",40,24.48,1829,4,3.1452
ORD065033,REST1046,CUST12526,COUR0849,-37.8187411,144.953228,2020-12-16,02:02:38,0,0,Car,"[('fish fingers', 2), ('murgh ghee roast', 2), ('draught beer', 2), ('french fries', 2)]",10,93.546,1988,5,3.2305
ORD065420,REST0348,CUST02966,COUR4079,-37.79996720000001,144.9797055,2020-06-18,02:02:38,0,0,Motorbike,"[('butter chicken', 3), ('paan ice cream', 2), ('chole bhature', 3), ('kheer', 3)]",0,146.44,4628,9,3.3077
ORD281295,REST0348,CUST09755,COUR0264,-37.8189974,144.9465067,2020-08-11,20:02:38,0,0,Car,"[('dal makhani', 2), ('paan ice cream', 1), ('mutton curry', 2)]",0,65.7,499,1,2.4351
ORD162981,REST1046,CUST01154,COUR1870,-37.80698029999999,145.0147676,2020-08-18,08:54:03,0,0,Bike,"[('beef chilli', 1), ('french fries', 1), ('fish fingers', 1)]",0,45.08,8107,41,6.6484
ORD180174,REST0348,CUST04174,COUR1106,-37.8242454,144.98839640000003,2020-12-19,15:49:27,0,1,Motorbike,"[('butter chicken', 3), ('dal makhani', 1)]",0,45.83,4753,10,4.6878
ORD003248,REST0931,CUST02956,COUR4234,-37.8011382,144.9830508,2020-01-05,22:44:50,0,1,Motorbike,"[('butter masala dosa', 1), ('idli', 1), ('upma', 3)]",0,91.47,636,1,3.7666
ORD280918,REST1046,CUST12604,COUR1945,-37.80452329999999,144.94878630000005,2020-04-07,14:18:27,0,0,Bike,"[('chicken curry', 1), ('fish fingers', 1)]",20,21.04,3439,17,4.1849
ORD074294,REST1034,CUST06478,COUR0676,-37.81999520000001,145.0142183,2020-10-31,08:14:30,0,1,Car,"[('dehati chicken', 3), ('paneer lababdar', 3), ('butter chicken', 2), ('chilli chicken', 2)]",20,96.904,7702,18,5.7463
ORD170523,REST0931,CUST01558,COUR1912,-37.8118516,144.9935419,2020-01-17,09:09:53,0,0,Motorbike,"[('idli', 1), ('chole', 1), ('butter masala dosa', 1)]",40,28.068,2742,5,2.7885
ORD259185,REST1046,CUST07211,COUR3657,-37.8172114,144.95245680000005,2020-05-05,10:21:05,0,0,Car,"[('draught beer', 1), ('murgh ghee roast', 2), ('fish fingers', 1), ('beef chilli', 2)]",10,53.586000000000006,2188,5,3.1905
ORD094361,REST0348,CUST09444,COUR2103,-37.8054842,144.9735747,2020-12-03,21:45:29,0,0,Car,"[('paan ice cream', 3), ('butter chicken', 2), ('kheer', 2), ('chicken tikka', 3)]",20,104.632,3554,9,3.6818
ORD023224,REST1046,CUST06248,COUR4816,-37.8115931,144.9381966,2020-03-17,18:23:44,1,0,Car,"[('fried rice', 3), ('murgh ghee roast', 1)]",0,33.07,1959,5,4.7214
ORD229919,REST0931,CUST02853,COUR0413,-37.821277,144.99183530000005,2020-08-29,21:17:48,0,1,Motorbike,"[('tea', 3), ('chole', 3)]",20,88.56,3402,7,4.879
ORD041300,REST1455,CUST07161,COUR1103,-37.8172189,145.0162981,2020-05-05,12:43:30,1,0,Car,"[('sea food', 2), ('egg roast', 1)]",0,50.07,5518,13,5.4528
ORD183288,REST0931,CUST02910,COUR0702,-37.8004896,144.9905208,2020-01-07,18:47:28,1,0,Car,"[('vada', 3), ('tea', 2), ('upma', 2)]",10,132.759,1240,3,4.5848
ORD050247,REST1455,CUST07172,COUR1230,-37.80386970000001,144.9974622,2020-09-18,00:59:20,0,0,Bike,"[('chicken curry', 1), ('appam', 2), ('chicken stew', 2)]",0,90.75,2475,12,3.8961
ORD332076,REST1034,CUST01273,COUR0689,-37.8049171,144.97559280000004,2020-07-19,14:34:17,0,1,Motorbike,"[('dehati chicken', 2), ('palak paneer', 3), ('mango lassi', 2)]",0,102.25,4010,8,4.5429
ORD260428,REST0931,CUST00683,COUR4127,-37.8169625,144.9640138,2020-04-04,07:23:04,0,1,Car,"[('filter coffee', 2), ('chole', 2), ('masala dosa', 3)]",10,138.015,2912,7,4.3636
ORD028888,REST1455,CUST02428,COUR1506,-37.8260331,144.9835017,2020-07-14,16:29:00,0,0,Bike,"[('appam', 3), ('chicken stew', 2), ('beef fry', 2)]",0,119.23,3618,18,4.4111
ORD045728,REST0348,CUST03097,COUR0966,-37.8149894,144.98287290000005,2020-04-26,09:33:37,0,1,Bike,"[('lassi', 2), ('mutton curry', 3), ('makke ki roti', 2), ('chole bhature', 3)]",0,137.26,4101,21,5.7804
ORD195607,REST0348,CUST07068,COUR0480,-37.7997138,144.95787119999997,2020-04-18,19:03:17,1,1,Bike,"[('mutton curry', 1), ('dal makhani', 1)]",20,20.032,3136,16,6.7102
ORD069375,REST1455,CUST08559,COUR2856,-37.8152223,144.9448829,2020-11-22,13:34:56,1,1,Bike,"[('beef fry', 2), ('chicken stew', 3), ('fish', 1)]",0,107.39,3508,18,6.9396
ORD305732,REST0931,CUST08854,COUR2098,-37.81841970000001,144.96688899999995,2020-09-05,12:31:38,1,1,Car,"[('idli', 2), ('filter coffee', 1), ('vada', 1)]",45,42.88399999999999,2854,7,5.718999999999999
ORD165134,REST0348,CUST05939,COUR0774,-37.8205124,144.966366,2020-02-04,08:26:22,0,0,Bike,"[('chicken tikka', 3), ('paan ice cream', 3), ('chole bhature', 2), ('butter chicken', 2)]",0,133.87,2737,14,3.9531
ORD007921,REST1455,CUST00882,COUR1197,-37.8137982,144.9541247,2020-11-26,00:19:46,0,0,Car,"[('egg roast', 1), ('chicken stew', 3), ('chicken curry', 2)]",45,69.438,2804,7,3.6304
ORD347544,REST1046,CUST11264,COUR2956,-37.824583,144.9459414,2020-02-03,10:09:13,0,0,Car,"[('fried rice', 3), ('chicken curry', 1)]",40,18.864,830,2,2.9527
ORD035526,REST1455,CUST05363,COUR0943,-37.8035324,144.9817888,2020-02-03,14:58:01,0,0,Bike,"[('chicken curry', 2), ('sea food', 3)]",45,46.305,1179,6,3.0869999999999997
ORD007731,REST1455,CUST09014,COUR2235,-37.8193406,145.0022538,2020-12-08,16:40:52,0,0,Bike,"[('chicken stew', 2), ('egg roast', 2)]",0,85.34,4260,21,2.52345
ORD060514,REST1455,CUST07249,COUR4022,-37.8223208,144.94781909999998,2020-02-06,14:38:14,0,0,Motorbike,"[('egg roast', 2), ('sea food', 2), ('fish', 2), ('chicken curry', 1)]",0,110.87,4217,8,3.888
ORD152489,REST0348,CUST10143,COUR3910,-37.7991393,144.9891178,2020-11-28,20:54:03,0,1,Car,"[('chicken tikka', 1), ('chole bhature', 2), ('dal makhani', 1), ('lassi', 3)]",20,65.176,5575,13,4.6946
ORD082856,REST1046,CUST10858,COUR1967,-37.7999175,144.9690896,2020-11-28,04:17:08,0,1,Bike,"[('draught beer', 3), ('french fries', 3)]",45,39.666,5173,26,3.0883
ORD319592,REST1034,CUST01836,COUR3857,-37.8219099,145.0114199,2020-02-01,23:08:34,0,1,Bike,"[('butter chicken', 3), ('mango lassi', 2)]",10,82.87200000000001,7835,39,7.7235
ORD097834,REST0931,CUST04023,COUR4292,-37.8193592,144.9838007,2020-03-23,21:41:32,0,0,Car,"[('filter coffee', 3), ('vada', 3)]",0,132.33,2843,7,3.2878
ORD325088,REST0931,CUST02575,COUR0205,-37.8028781,144.96062709999995,2020-04-01,17:44:10,0,0,Bike,"[('idli', 3), ('tea', 1), ('butter masala dosa', 2), ('vada', 2)]",0,131.87,2163,11,3.9415
ORD114741,REST0931,CUST08571,COUR4475,-37.8061379,144.9399532,2020-08-21,21:49:27,0,0,Bike,"[('upma', 3), ('butter masala dosa', 1)]",0,74.54,4951,25,4.8038
ORD228670,REST1046,CUST03803,COUR0633,-37.8192464,144.94244880000005,2020-02-28,01:38:54,0,0,Motorbike,"[('fried rice', 2), ('draught beer', 1), ('beef chilli', 2)]",0,38.74,1845,4,2.7455
ORD304686,REST1455,CUST13319,COUR3175,-37.8197307,144.94097119999995,2020-10-21,03:45:29,0,0,Car,"[('egg roast', 1), ('chicken stew', 3)]",45,46.54600000000001,4335,10,3.5613
ORD141322,REST1034,CUST07719,COUR0225,-37.80074550000001,144.9568467,2020-03-12,00:43:30,0,0,Car,"[('chilli chicken', 2), ('palak paneer', 2), ('manchurian', 2), ('mango lassi', 1)]",0,104.07,2819,7,3.4607
ORD011830,REST1046,CUST04805,COUR4003,-37.8043856,144.9283024,2020-07-04,06:31:38,0,1,Motorbike,"[('beef chilli', 1), ('french fries', 3)]",40,37.092,3437,7,4.0771
ORD281457,REST1046,CUST06621,COUR2459,-37.8243669,144.9827426,2020-11-13,14:14:30,0,0,Car,"[('fish fingers', 2), ('draught beer', 2), ('chicken curry', 3)]",20,57.824,4619,11,3.6871
ORD003768,REST1046,CUST02537,COUR2991,-37.8127256,144.94021469999996,2020-01-04,01:19:07,0,1,Motorbike,"[('fish fingers', 2), ('draught beer', 3), ('murgh ghee roast', 2)]",0,74.4,1904,4,3.9996
ORD316208,REST1046,CUST00097,COUR0367,-37.8256755,144.99792150000005,2020-09-12,02:22:25,0,1,Motorbike,"[('fried rice', 2), ('murgh ghee roast', 1)]",0,25.03,5757,12,4.8019
ORD303561,REST1455,CUST12762,COUR1431,-37.8107895,145.0143841,2020-12-03,05:48:07,0,0,Bike,"[('beef fry', 1), ('appam', 1), ('fish', 1)]",45,22.434,4496,22,5.2582
ORD067936,REST0348,CUST00087,COUR2602,-37.8163763,144.9963062,2020-12-13,21:37:34,0,1,Motorbike,"[('mutton curry', 2), ('chole bhature', 1)]",0,36.47,5409,11,4.3792
ORD110407,REST1455,CUST12562,COUR0455,-37.81875220000001,144.9532268,2020-03-30,05:36:15,0,0,Bike,"[('appam', 1), ('chicken curry', 1)]",0,34.8,3501,18,4.4959
ORD246378,REST1455,CUST11581,COUR0367,-37.8184279,144.94845719999995,2020-01-16,04:36:55,0,0,Motorbike,"[('sea food', 3), ('appam', 3)]",45,46.497,3785,8,3.8061
ORD010051,REST0348,CUST13234,COUR1286,-37.821108,144.9781932,2020-02-13,17:32:18,0,0,Bike,"[('kheer', 1), ('makke ki roti', 3), ('butter chicken', 1), ('lassi', 2)]",10,95.31,3921,20,4.5386
ORD190004,REST1046,CUST00191,COUR1540,-37.7887844,144.93779080000004,2020-03-14,01:03:17,0,1,Motorbike,"[('chicken curry', 1), ('fried rice', 1)]",0,15.36,4490,9,4.5942
ORD342419,REST1034,CUST02399,COUR2269,-37.8065557,144.9852247,2020-08-17,14:50:06,0,0,Bike,"[('butter chicken', 1), ('dehati chicken', 1), ('palak paneer', 2), ('manchurian', 1)]",40,53.61,4803,24,4.891
ORD317011,REST0931,CUST13198,COUR1963,-37.8176138,144.9730313,2020-05-03,12:39:33,1,1,Car,"[('masala dosa', 3), ('chole', 3), ('vada', 1), ('filter coffee', 3)]",10,196.812,2497,6,5.7752
ORD090837,REST0931,CUST13565,COUR2847,-37.8041929,144.967362,2020-09-16,01:19:07,0,0,Car,"[('masala dosa', 2), ('filter coffee', 1), ('vada', 3), ('upma', 3)]",0,205.38,1755,4,2.9758
ORD283630,REST1034,CUST09296,COUR1632,-37.813725,144.9574279,2020-08-07,21:41:32,0,0,Car,"[('butter chicken', 2), ('dehati chicken', 1)]",45,30.333000000000002,2332,6,3.3994
ORD247566,REST0931,CUST05511,COUR4464,-37.8127294,144.96192230000003,2020-08-31,22:09:13,0,0,Bike,"[('idli', 1), ('chole', 3)]",20,64.472,2705,14,4.1315
ORD160355,REST0348,CUST00847,COUR1551,-37.7993985,144.9997805,2020-02-29,07:27:01,0,1,Car,"[('mutton curry', 1), ('paan ice cream', 1), ('paneer tikka', 1), ('makke ki roti', 3)]",0,109.06,6548,16,5.0444
ORD039405,REST1034,CUST10091,COUR3911,-37.8038035,144.9781357,2020-03-29,03:37:34,0,1,Motorbike,"[('palak paneer', 1), ('chilli chicken', 1), ('mango lassi', 2), ('butter chicken', 3)]",10,116.469,4760,10,4.7085
ORD050613,REST0348,CUST06629,COUR0355,-37.8260078,144.98219939999996,2020-12-17,10:32:58,0,0,Bike,"[('dal makhani', 2), ('paan ice cream', 1), ('chole bhature', 2), ('chicken tikka', 3)]",0,109.81,4301,22,4.8777
ORD119419,REST1034,CUST04363,COUR2634,-37.8230066,144.9876456,2020-04-15,06:03:57,0,0,Motorbike,"[('dehati chicken', 3), ('manchurian', 3)]",10,42.957,5403,11,3.5389999999999997
ORD001790,REST0931,CUST11664,COUR3075,-37.8189045,144.9527167,2020-11-18,14:46:09,0,0,Car,"[('chole', 3), ('masala dosa', 3)]",45,73.97,3864,9,3.4957
ORD004815,REST1455,CUST04698,COUR2657,-37.8042953,144.91723159999995,2020-02-03,20:06:35,0,0,Car,"[('fish', 2), ('egg roast', 3), ('sea food', 2), ('chicken curry', 1)]",0,132.56,5824,14,4.3632
ORD262272,REST1046,CUST03859,COUR3814,-37.8131949,144.9875679,2020-08-22,22:09:13,0,1,Motorbike,"[('beef chilli', 3), ('chicken curry', 2), ('murgh ghee roast', 2), ('draught beer', 2)]",0,69.62,5058,10,4.8976
ORD164263,REST0931,CUST03503,COUR0136,-37.8141178,144.9378554,2020-08-27,01:27:01,0,0,Motorbike,"[('masala dosa', 2), ('vada', 2)]",45,52.448,4664,9,3.8582
ORD089286,REST1046,CUST01745,COUR4407,-37.8153166,144.94192030000005,2020-04-10,08:42:11,0,0,Car,"[('chicken curry', 1), ('beef chilli', 1)]",45,8.558,1777,4,3.1956
ORD028382,REST0348,CUST13567,COUR4300,-37.8041703,144.96761750000005,2020-01-18,08:50:06,0,1,Motorbike,"[('kheer', 2), ('lassi', 1), ('makke ki roti', 2), ('paan ice cream', 1)]",0,93.85,3377,7,4.4172
ORD077974,REST1034,CUST05186,COUR2920,-37.816673,144.9663024,2020-07-28,11:08:34,0,0,Bike,"[('mango lassi', 1), ('dehati chicken', 3), ('palak paneer', 3)]",0,98.99,3387,17,4.4593
ORD340456,REST1034,CUST03915,COUR1173,-37.8210743,144.94727269999996,2020-10-27,00:47:28,0,0,Bike,"[('chilli chicken', 3), ('butter chicken', 1), ('dehati chicken', 1), ('palak paneer', 2)]",40,70.83,1766,9,3.4155
ORD199607,REST1046,CUST07558,COUR1151,-37.8111682,144.94028740000005,2020-04-17,11:04:36,0,0,Motorbike,"[('chicken curry', 3), ('beef chilli', 1), ('fried rice', 1)]",0,38.24,2303,5,3.1016
ORD165374,REST1046,CUST09544,COUR4559,-37.8146338,144.96948899999995,2020-02-07,07:54:43,0,0,Bike,"[('murgh ghee roast', 3), ('beef chilli', 3)]",45,28.364,3444,17,2.0803
ORD342701,REST0931,CUST02716,COUR2971,-37.822806,145.0093369,2020-03-22,17:40:13,0,1,Bike,"[('filter coffee', 2), ('masala dosa', 3), ('chole', 3)]",40,104.742,5060,25,5.7387
ORD078181,REST0931,CUST13050,COUR1504,-37.812211,144.9531266,2020-06-24,21:09:53,0,0,Motorbike,"[('idli', 2), ('chole', 3), ('upma', 3)]",45,89.887,3259,7,3.3883
ORD000026,REST0931,CUST12466,COUR4762,-37.8188049,144.95337080000004,2020-12-13,11:32:18,0,1,Motorbike,"[('tea', 3), ('upma', 1), ('butter masala dosa', 2), ('vada', 1)]",45,60.687,3785,8,3.9973
ORD172670,REST0348,CUST05459,COUR4672,-37.8080057,144.9577132,2020-09-20,17:52:05,0,1,Bike,"[('makke ki roti', 2), ('lassi', 1), ('chole bhature', 3)]",10,86.4,2304,12,4.7747
ORD311615,REST1046,CUST07811,COUR3632,-37.8185808,144.9990696,2020-03-16,05:44:10,0,0,Car,"[('fish fingers', 3), ('fried rice', 3), ('chicken curry', 3), ('beef chilli', 2)]",20,95.6,5916,14,4.0169
ORD043154,REST1046,CUST02221,COUR3810,-37.8088956,144.9608977,2020-07-07,19:23:04,1,0,Motorbike,"[('chicken curry', 1), ('fried rice', 3), ('draught beer', 2)]",10,39.42,3810,8,5.2901
ORD288450,REST0348,CUST12154,COUR0485,-37.8243262,144.9554548,2020-01-27,07:23:04,0,0,Motorbike,"[('makke ki roti', 3), ('chicken tikka', 1)]",45,42.449,1883,4,3.1367
ORD026579,REST1046,CUST10242,COUR0278,-37.8048211,144.993781,2020-06-23,12:59:20,1,0,Motorbike,"[('draught beer', 3), ('fish fingers', 1), ('chicken curry', 2)]",10,46.943999999999996,6459,13,5.4899
ORD071046,REST0348,CUST05319,COUR0692,-37.8165074,144.9685455,2020-02-22,09:45:29,0,1,Car,"[('butter chicken', 2), ('paneer tikka', 1), ('paan ice cream', 3), ('makke ki roti', 2)]",0,128.86,2795,7,4.6103
ORD207061,REST0348,CUST01744,COUR2855,-37.8153963,144.9417271,2020-05-07,02:46:09,0,0,Car,"[('makke ki roti', 1), ('mutton curry', 1)]",20,26.048000000000002,950,2,2.8425
ORD162401,REST0348,CUST02465,COUR0364,-37.8004129,144.99885790000005,2020-11-11,00:15:49,0,0,Bike,"[('chicken tikka', 1), ('dal makhani', 2), ('makke ki roti', 1)]",0,62.14,6370,32,5.7033
ORD220350,REST0931,CUST04499,COUR1104,-37.822508,144.9682768,2020-01-31,06:43:30,0,0,Motorbike,"[('filter coffee', 1), ('idli', 3), ('chole', 2), ('vada', 1)]",20,109.87200000000001,3304,7,2.9937
ORD213367,REST1455,CUST01763,COUR0763,-37.8089652,144.9708184,2020-04-23,01:11:12,0,0,Car,"[('fish', 2), ('appam', 1)]",0,32.29,1292,3,3.0795
ORD085215,REST0348,CUST04647,COUR0945,-37.8059927,144.93250980000005,2020-07-18,05:00:39,0,1,Bike,"[('dal makhani', 2), ('lassi', 2), ('paneer tikka', 3)]",0,98.1,2394,12,4.8452
ORD222947,REST0931,CUST04256,COUR1891,-37.8246285,144.9888834,2020-06-01,13:15:09,1,0,Car,"[('upma', 1), ('chole', 3)]",10,77.067,3522,8,4.9728
ORD200090,REST1034,CUST09993,COUR0643,-37.7998935,144.9892036,2020-10-28,08:42:11,0,0,Bike,"[('butter chicken', 2), ('mango lassi', 2), ('palak paneer', 1), ('dehati chicken', 3)]",10,97.83,5767,29,5.2708
ORD032119,REST0931,CUST00133,COUR4772,-37.80451770000001,144.9713513,2020-04-13,11:24:23,0,0,Motorbike,"[('masala dosa', 1), ('chole', 3), ('tea', 2)]",0,118.63,1430,3,2.5696
ORD342799,REST0348,CUST02903,COUR4009,-37.8055859,144.98626389999995,2020-12-20,23:48:07,0,1,Car,"[('butter chicken', 3), ('makke ki roti', 2)]",0,75.02,4739,11,4.7755
ORD321919,REST1455,CUST09443,COUR4147,-37.8053448,144.9737165,2020-06-23,02:34:17,0,0,Bike,"[('fish', 3), ('chicken curry', 1)]",0,48.26,707,4,3.0302
ORD340075,REST1034,CUST02099,COUR0323,-37.7996265,145.0188339,2020-05-29,05:04:36,0,0,Bike,"[('palak paneer', 2), ('butter chicken', 3)]",0,122.92,8364,42,6.737
ORD160489,REST0931,CUST07443,COUR4893,-37.8011862,144.9631305,2020-05-24,13:03:17,1,1,Car,"[('filter coffee', 1), ('idli', 2), ('vada', 2), ('butter masala dosa', 1)]",45,60.868,1909,5,5.3695
ORD137469,REST0348,CUST08644,COUR3430,-37.8062908,144.9591716,2020-08-30,14:30:19,0,1,Motorbike,"[('mutton curry', 2), ('kheer', 3), ('lassi', 2), ('paan ice cream', 2)]",0,109.65,2576,5,4.3897
ORD205373,REST0931,CUST07871,COUR1126,-37.8160418,144.982697,2020-02-15,07:54:43,0,1,Motorbike,"[('upma', 1), ('filter coffee', 3), ('vada', 2), ('idli', 3)]",0,181.02,2285,5,4.0744
ORD228943,REST0348,CUST01095,COUR4680,-37.8105832,145.0094926,2020-10-03,06:59:20,0,1,Motorbike,"[('paan ice cream', 3), ('lassi', 1), ('chole bhature', 3), ('paneer tikka', 1)]",40,70.236,7019,14,4.9248
ORD023666,REST0931,CUST09701,COUR3242,-37.8079098,145.0087219,2020-08-15,06:39:33,0,1,Bike,"[('vada', 1), ('butter masala dosa', 2), ('upma', 3)]",0,107.24,3779,19,8.1423
ORD051129,REST1455,CUST02742,COUR2150,-37.8069205,144.9428631,2020-02-07,03:57:21,0,0,Car,"[('egg roast', 1), ('fish', 2), ('sea food', 3)]",0,82.56,3601,9,3.5384
ORD147376,REST1046,CUST04864,COUR0334,-37.8221438,144.978328,2020-10-31,13:34:56,1,1,Car,"[('chicken curry', 2), ('beef chilli', 1)]",0,22.88,4197,10,6.3439
ORD221876,REST1046,CUST06074,COUR3435,-37.8074005,144.94242519999997,2020-12-22,00:00:00,0,0,Motorbike,"[('fish fingers', 1), ('fried rice', 1), ('beef chilli', 2), ('draught beer', 1)]",10,44.711999999999996,2938,6,3.0457
ORD009755,REST0931,CUST11987,COUR4942,-37.8166908,144.9906897,2020-11-26,00:31:38,0,0,Car,"[('upma', 2), ('masala dosa', 3), ('butter masala dosa', 1), ('tea', 1)]",20,111.264,3093,7,3.3755
ORD333427,REST1046,CUST05924,COUR2477,-37.820156,144.96696819999997,2020-08-16,12:31:38,1,1,Bike,"[('murgh ghee roast', 1), ('chicken curry', 2), ('fried rice', 2), ('draught beer', 3)]",0,58.21,2908,15,3.23255
ORD270658,REST1455,CUST06079,COUR4066,-37.8075388,144.94203869999996,2020-04-14,05:32:18,0,0,Bike,"[('appam', 3), ('sea food', 1)]",20,44.928000000000004,3748,19,4.8693
ORD311379,REST0931,CUST03260,COUR2257,-37.7980886,144.98404119999995,2020-02-04,05:40:13,0,0,Motorbike,"[('upma', 1), ('masala dosa', 1), ('tea', 3)]",10,83.35799999999999,675,1,2.7762
ORD089265,REST1034,CUST03339,COUR3797,-37.810314,144.94738180000004,2020-05-12,19:19:07,1,0,Motorbike,"[('butter chicken', 2), ('manchurian', 2), ('chilli chicken', 2), ('paneer lababdar', 3)]",45,68.53,1272,3,4.4679
ORD219881,REST1046,CUST02253,COUR1234,-37.8189288,144.9637475,2020-12-07,11:32:18,0,0,Bike,"[('french fries', 1), ('draught beer', 1), ('chicken curry', 1)]",0,31.36,3190,16,4.4414
ORD003637,REST1034,CUST04574,COUR3929,-37.8135461,144.9488599,2020-10-01,12:03:57,1,0,Car,"[('mango lassi', 2), ('paneer lababdar', 2), ('butter chicken', 3), ('chilli chicken', 2)]",0,137.16,2559,6,4.9772
ORD033673,REST1046,CUST09462,COUR4062,-37.8012946,144.9457873,2020-10-29,18:27:41,1,0,Bike,"[('beef chilli', 2), ('fried rice', 3), ('chicken curry', 3), ('murgh ghee roast', 3)]",40,53.646,3573,18,5.6808
ORD020320,REST0348,CUST08622,COUR3472,-37.8098238,144.976572,2020-09-17,05:00:39,0,0,Car,"[('dal makhani', 3), ('paan ice cream', 1)]",10,52.263000000000005,3727,9,3.4017
ORD309620,REST1455,CUST10787,COUR0646,-37.80892470000001,144.96168390000003,2020-11-27,02:22:25,0,0,Motorbike,"[('appam', 1), ('fish', 2)]",20,25.831999999999997,2125,4,3.0497
ORD308908,REST0931,CUST02131,COUR2503,-37.8002551,144.9509615,2020-09-25,09:57:21,0,0,Bike,"[('idli', 1), ('tea', 3)]",20,51.176,2930,15,4.2679
ORD040451,REST1034,CUST07339,COUR4611,-37.8187213,144.9681905,2020-02-09,18:23:44,1,1,Bike,"[('mango lassi', 1), ('paneer lababdar', 3), ('palak paneer', 3)]",0,110.66,3546,18,6.8361
ORD123229,REST1455,CUST02555,COUR1329,-37.8038968,145.00363159999995,2020-09-04,14:34:17,0,0,Bike,"[('fish', 1), ('appam', 2), ('chicken curry', 3), ('egg roast', 3)]",45,90.54700000000001,3153,16,4.4201
ORD158303,REST1455,CUST09566,COUR3489,-37.8117066,144.95629169999995,2020-01-08,07:27:01,0,0,Motorbike,"[('egg roast', 2), ('appam', 3), ('sea food', 3), ('beef fry', 3)]",0,180.87,2420,5,3.0303
ORD045384,REST0348,CUST05784,COUR4901,-37.810275,144.94273940000005,2020-02-29,17:04:36,0,1,Bike,"[('paan ice cream', 3), ('paneer tikka', 2), ('mutton curry', 2), ('makke ki roti', 3)]",0,168.73,2342,12,4.7927
ORD183250,REST1034,CUST05572,COUR4108,-37.8129094,144.94855969999998,2020-07-17,12:11:52,1,0,Motorbike,"[('palak paneer', 1), ('mango lassi', 1), ('dehati chicken', 3)]",0,50.29,2629,5,4.4907
ORD223502,REST0348,CUST11457,COUR4377,-37.8237079,144.9917149,2020-04-23,00:35:36,0,0,Motorbike,"[('dal makhani', 1), ('paan ice cream', 2)]",0,45.39,5024,10,3.7116
ORD125512,REST0931,CUST12089,COUR4498,-37.799333,144.963155,2020-11-28,08:34:17,0,1,Car,"[('butter masala dosa', 2), ('tea', 2)]",40,29.171999999999997,1828,4,3.9119
ORD012129,REST0348,CUST09684,COUR1974,-37.82345220000001,144.9846337,2020-11-11,14:30:19,0,0,Bike,"[('lassi', 2), ('chole bhature', 3), ('kheer', 3), ('paneer tikka', 2)]",0,135.78,4565,23,5.06
ORD043658,REST1046,CUST05595,COUR1155,-37.8153198,144.9365331,2020-12-11,02:50:06,0,0,Bike,"[('fish fingers', 2), ('beef chilli', 1)]",0,46.2,1448,7,3.2485
ORD037775,REST1034,CUST03476,COUR1112,-37.8145045,144.9919676,2020-03-13,08:06:35,0,0,Car,"[('mango lassi', 3), ('butter chicken', 3), ('chilli chicken', 3)]",20,111.96,5775,14,4.033
ORD348874,REST1046,CUST08458,COUR2784,-37.8266136,144.98172390000005,2020-08-28,05:48:07,0,0,Bike,"[('chicken curry', 3), ('french fries', 1), ('fish fingers', 2), ('fried rice', 3)]",0,101.9,4640,23,4.5928
ORD269616,REST0348,CUST03186,COUR4890,-37.8079358,144.9210938,2020-02-09,06:07:54,0,1,Car,"[('makke ki roti', 1), ('dal makhani', 3), ('chole bhature', 1), ('chicken tikka', 3)]",45,63.426,3001,7,4.4289
ORD256196,REST1455,CUST01583,COUR2397,-37.8237834,144.99767930000004,2020-06-22,18:00:00,1,0,Motorbike,"[('sea food', 1), ('chicken curry', 3), ('appam', 1), ('egg roast', 2)]",40,80.39399999999999,4218,8,4.9463
ORD165895,REST1034,CUST10720,COUR4927,-37.8117309,144.9838923,2020-01-29,08:50:06,0,0,Bike,"[('chilli chicken', 2), ('paneer lababdar', 1), ('palak paneer', 1), ('dehati chicken', 3)]",0,76.88,4808,24,4.9055
ORD077194,REST0931,CUST02312,COUR4354,-37.8128179,144.9459102,2020-07-21,21:33:37,0,0,Car,"[('butter masala dosa', 3), ('upma', 3)]",0,91.8,4028,10,3.8973
ORD195409,REST1455,CUST03530,COUR0246,-37.821301,145.0033795,2020-05-15,04:56:42,0,0,Car,"[('beef fry', 3), ('appam', 3), ('sea food', 1), ('chicken stew', 3)]",45,94.62799999999999,4557,11,4.561
ORD344241,REST0931,CUST03644,COUR0118,-37.8036072,144.96745009999995,2020-08-10,18:07:54,1,0,Motorbike,"[('butter masala dosa', 2), ('vada', 2), ('upma', 2), ('filter coffee', 2)]",0,149.42,1484,3,4.7375
ORD276781,REST1455,CUST10471,COUR2485,-37.7994496,144.95963830000005,2020-03-18,06:35:36,0,0,Motorbike,"[('appam', 3), ('egg roast', 3), ('fish', 2)]",45,68.937,1485,3,3.2761
ORD263559,REST1455,CUST11178,COUR4966,-37.804659,144.95343119999995,2020-12-26,12:27:41,1,1,Bike,"[('fish', 1), ('chicken curry', 1)]",0,29.96,2425,12,6.0681
ORD117886,REST1046,CUST06304,COUR0194,-37.8065317,144.9571102,2020-01-16,10:13:11,0,0,Bike,"[('beef chilli', 2), ('chicken curry', 3), ('fried rice', 1), ('fish fingers', 1)]",20,52.368,3550,18,4.6918
ORD104202,REST1455,CUST07450,COUR2339,-37.8198468,144.9670168,2020-05-11,16:52:44,0,0,Car,"[('chicken curry', 3), ('sea food', 1), ('appam', 1), ('egg roast', 2)]",40,80.39399999999999,2909,7,3.2084
ORD177686,REST0931,CUST08000,COUR4503,-37.8193861,145.0073063,2020-02-29,17:56:02,0,1,Bike,"[('butter masala dosa', 2), ('masala dosa', 1), ('vada', 1)]",0,64.94,4495,22,5.5633
ORD331829,REST0931,CUST11535,COUR2919,-37.8060789,144.9974028,2020-11-03,13:58:40,1,0,Bike,"[('vada', 3), ('chole', 2), ('masala dosa', 3)]",0,185.48,2626,13,8.02545
ORD341295,REST1455,CUST02188,COUR0599,-37.806362,144.9466284,2020-09-05,06:11:52,0,1,Motorbike,"[('sea food', 2), ('beef fry', 3), ('fish', 2)]",0,99.63,3166,6,4.4997
ORD286602,REST1455,CUST12238,COUR4520,-37.8198422,144.9408034,2020-08-29,15:09:53,0,1,Car,"[('beef fry', 2), ('fish', 2), ('egg roast', 3)]",0,118.67,4316,10,4.6872
ORD064120,REST1046,CUST09092,COUR1278,-37.8259518,145.01228600000005,2020-11-04,04:29:00,0,0,Car,"[('beef chilli', 2), ('french fries', 2), ('draught beer', 1), ('murgh ghee roast', 3)]",0,85.23,7420,18,4.5046
ORD292815,REST0931,CUST07385,COUR1229,-37.822118,144.9693669,2020-04-25,23:24:23,0,1,Car,"[('filter coffee', 2), ('vada', 1), ('upma', 2), ('masala dosa', 3)]",10,161.028,3217,8,4.6444
ORD152347,REST1455,CUST10306,COUR3275,-37.8246967,144.93636809999995,2020-08-02,03:01:58,0,1,Motorbike,"[('chicken stew', 1), ('appam', 3), ('egg roast', 3), ('beef fry', 3)]",10,162.873,5580,11,5.0763
ORD311465,REST1046,CUST08036,COUR1078,-37.8196347,145.0083119,2020-01-22,03:05:56,0,0,Motorbike,"[('murgh ghee roast', 2), ('draught beer', 1), ('fried rice', 2)]",10,36.144,6745,13,3.944
ORD094856,REST0931,CUST10824,COUR0972,-37.8086933,144.9565115,2020-04-29,05:08:34,0,0,Bike,"[('filter coffee', 1), ('chole', 2)]",20,49.983999999999995,2794,14,4.0307
ORD141582,REST0348,CUST01191,COUR2723,-37.8077112,144.9935943,2020-02-08,18:31:38,1,1,Bike,"[('paan ice cream', 3), ('chole bhature', 3)]",0,90.93,5342,27,3.70595
ORD236600,REST1455,CUST12661,COUR2013,-37.8032857,144.9502708,2020-06-01,10:56:42,0,0,Motorbike,"[('chicken stew', 1), ('sea food', 1), ('beef fry', 1), ('egg roast', 2)]",20,76.96,2717,5,3.2093
ORD212032,REST1455,CUST09829,COUR2893,-37.8173234,144.9674074,2020-11-29,06:07:54,0,1,Motorbike,"[('beef fry', 1), ('fish', 1), ('chicken curry', 3), ('egg roast', 1)]",40,66.55199999999999,2486,5,4.4002
ORD178244,REST0931,CUST08890,COUR2317,-37.8175294,144.99595980000004,2020-03-08,21:01:58,0,1,Bike,"[('vada', 1), ('butter masala dosa', 2), ('masala dosa', 1), ('filter coffee', 1)]",0,84.98,3505,18,5.1425
ORD197578,REST0931,CUST05155,COUR0110,-37.823947,144.9543146,2020-12-06,05:12:31,0,1,Car,"[('butter masala dosa', 2), ('tea', 2), ('upma', 2)]",45,50.908,4212,10,4.9833
ORD319039,REST1034,CUST11260,COUR3080,-37.8050464,144.9615018,2020-12-15,22:21:05,0,0,Bike,"[('paneer lababdar', 2), ('mango lassi', 3), ('butter chicken', 1)]",40,42.39,6078,30,6.2498
ORD100507,REST0931,CUST13501,COUR0690,-37.8023815,144.99146159999995,2020-12-11,02:34:17,0,0,Car,"[('filter coffee', 2), ('butter masala dosa', 2), ('upma', 1)]",0,79.31,1466,4,3.1825
ORD090282,REST0348,CUST08128,COUR2962,-37.8168733,145.00726609999995,2020-07-19,04:36:55,0,1,Motorbike,"[('chole bhature', 3), ('paneer tikka', 3), ('paan ice cream', 1), ('butter chicken', 3)]",20,115.19200000000001,6395,13,4.8262
ORD284845,REST1455,CUST11703,COUR2913,-37.8098006,144.9928419,2020-03-12,02:46:09,0,0,Motorbike,"[('beef fry', 3), ('egg roast', 3), ('chicken curry', 2)]",0,159.64,2687,5,3.6651
ORD178227,REST1046,CUST11949,COUR4450,-37.8161635,145.0099421,2020-09-11,15:01:58,0,0,Bike,"[('french fries', 3), ('murgh ghee roast', 1), ('chicken curry', 3)]",0,84.49,7157,36,6.3522
ORD147972,REST1046,CUST05207,COUR4094,-37.82257050000001,144.9526419,2020-02-24,21:05:56,0,0,Bike,"[('beef chilli', 3), ('draught beer', 1), ('fish fingers', 2), ('chicken curry', 1)]",10,68.562,1984,10,3.653
ORD293103,REST0931,CUST07865,COUR4673,-37.816075,144.98384430000004,2020-02-25,21:41:32,0,0,Car,"[('upma', 1), ('butter masala dosa', 3), ('idli', 2)]",0,81.72,2395,6,3.3374
ORD301723,REST0931,CUST08608,COUR0673,-37.8015617,144.9967754,2020-06-25,00:47:28,0,0,Car,"[('idli', 2), ('tea', 3)]",10,72.81,1881,5,2.7856
ORD038716,REST1034,CUST13863,COUR3701,-37.8167982,144.9692946,2020-05-02,16:56:42,0,1,Motorbike,"[('manchurian', 1), ('mango lassi', 3)]",40,22.218000000000004,3656,7,4.3557
ORD262585,REST0348,CUST11148,COUR3377,-37.8065742,144.9456498,2020-07-26,06:03:57,0,1,Bike,"[('kheer', 3), ('chicken tikka', 3)]",0,75.96,1961,10,4.2981
ORD025630,REST0931,CUST02757,COUR0881,-37.8101386,145.0007316,2020-10-30,01:19:07,0,0,Bike,"[('chole', 2), ('upma', 3)]",45,59.592,3007,15,3.8631
ORD165421,REST0348,CUST08071,COUR0351,-37.8198734,145.01166809999995,2020-12-20,22:29:00,0,1,Car,"[('paneer tikka', 2), ('makke ki roti', 1), ('kheer', 2)]",10,74.745,6677,16,5.0914
ORD105606,REST0348,CUST00130,COUR0776,-37.8004914,144.9734901,2020-09-28,13:03:17,1,0,Car,"[('mutton curry', 3), ('makke ki roti', 3), ('paan ice cream', 2)]",0,128.92,4052,10,5.1063
ORD159476,REST1455,CUST06866,COUR3158,-37.8058861,144.95924069999995,2020-03-19,00:39:33,0,0,Car,"[('chicken curry', 1), ('egg roast', 1), ('sea food', 3), ('appam', 1)]",0,99.06,2000,5,2.9587
ORD309222,REST1034,CUST06789,COUR1453,-37.8058079,144.94606169999997,2020-12-14,00:55:23,0,0,Car,"[('butter chicken', 2), ('dehati chicken', 2)]",40,36.492,1751,4,3.4813
ORD341052,REST0931,CUST07946,COUR4594,-37.8142194,144.97445349999995,2020-03-21,16:32:58,0,1,Car,"[('chole', 3), ('filter coffee', 3)]",40,74.268,1932,5,4.4121
ORD127905,REST1455,CUST11021,COUR0668,-37.8116973,144.9512586,2020-02-26,16:52:44,0,0,Bike,"[('chicken stew', 2), ('sea food', 2)]",40,42.20399999999999,2928,15,4.2321
ORD114221,REST0348,CUST11981,COUR0333,-37.8171595,144.9533083,2020-05-15,18:11:52,1,0,Car,"[('paan ice cream', 3), ('makke ki roti', 3)]",0,111.87,1237,3,4.8314
ORD113519,REST0931,CUST12078,COUR3832,-37.8171949,144.9645119,2020-04-26,14:06:35,0,1,Bike,"[('chole', 1), ('filter coffee', 2), ('masala dosa', 3)]",40,79.278,2838,14,7.55475
ORD103335,REST0348,CUST05140,COUR3471,-37.8248449,144.9535086,2020-09-24,10:17:08,0,0,Car,"[('lassi', 1), ('kheer', 3)]",40,28.824,1477,4,2.6299
ORD317421,REST1046,CUST05125,COUR2686,-37.8224083,144.9475061,2020-10-07,21:13:50,0,0,Car,"[('fish fingers', 3), ('murgh ghee roast', 1), ('french fries', 2), ('fried rice', 3)]",45,69.152,1214,3,2.6385
ORD010982,REST0348,CUST07594,COUR4204,-37.813296,144.93868940000004,2020-03-18,16:44:50,0,0,Motorbike,"[('paan ice cream', 1), ('butter chicken', 3), ('lassi', 3)]",40,43.842,1873,4,2.9237
ORD166738,REST0348,CUST01896,COUR4869,-37.8250646,144.9925445,2020-05-06,03:25:42,0,0,Bike,"[('chole bhature', 1), ('dal makhani', 3)]",10,51.426,5090,25,5.1941
ORD211321,REST1046,CUST03092,COUR3042,-37.8078416,145.01320890000005,2020-07-08,20:30:19,0,0,Bike,"[('draught beer', 1), ('french fries', 2), ('chicken curry', 2), ('murgh ghee roast', 3)]",0,83.39,7915,40,6.6487
ORD177530,REST1034,CUST01841,COUR2516,-37.8231778,145.0138494,2020-08-29,20:38:14,0,1,Car,"[('manchurian', 3), ('dehati chicken', 2), ('paneer lababdar', 2), ('mango lassi', 2)]",40,47.424,8002,19,2.73455
ORD205540,REST0931,CUST09453,COUR2181,-37.79981420000001,144.9782391,2020-08-16,14:18:27,0,1,Car,"[('tea', 3), ('filter coffee', 1), ('chole', 1)]",0,88.3,202,0,3.5016
ORD308675,REST1034,CUST12124,COUR0453,-37.822972,144.9889144,2020-02-09,21:49:27,0,1,Motorbike,"[('butter chicken', 1), ('chilli chicken', 2)]",0,50.7,5472,11,4.8584
ORD301491,REST1034,CUST00276,COUR4872,-37.8201432,144.97378840000005,2020-08-29,15:37:34,0,1,Motorbike,"[('manchurian', 2), ('paneer lababdar', 1), ('mango lassi', 3)]",40,34.098,4336,9,4.6942
ORD203204,REST0348,CUST05568,COUR1600,-37.8126414,144.94850319999995,2020-06-01,02:42:11,0,0,Motorbike,"[('makke ki roti', 3), ('chole bhature', 3)]",0,109.08,3048,6,3.3932
ORD157511,REST1046,CUST11879,COUR3716,-37.8110224,145.0051534,2020-01-21,13:19:07,1,0,Motorbike,"[('fried rice', 3), ('chicken curry', 2), ('beef chilli', 3)]",0,63.48,6822,14,5.5205
ORD150441,REST0348,CUST05810,COUR4664,-37.8148083,144.9814605,2020-03-03,07:54:43,0,0,Bike,"[('paneer tikka', 2), ('butter chicken', 1)]",40,27.384,3967,20,4.6137
ORD207610,REST0348,CUST00846,COUR3902,-37.79909050000001,144.9928413,2020-06-02,10:56:42,0,0,Car,"[('paan ice cream', 2), ('kheer', 3), ('mutton curry', 3), ('paneer tikka', 1)]",45,66.495,5918,14,3.5683
ORD251596,REST1034,CUST00065,COUR3214,-37.7999748,144.97464490000004,2020-10-13,22:44:50,0,0,Bike,"[('butter chicken', 2), ('paneer lababdar', 3)]",0,78.16,4331,22,5.0384
ORD140409,REST0348,CUST10233,COUR1548,-37.8033452,144.9694125,2020-10-27,20:50:06,0,0,Bike,"[('chole bhature', 1), ('paneer tikka', 2)]",45,27.374000000000002,3507,18,4.6024
ORD316693,REST1455,CUST04258,COUR4661,-37.82457479999999,144.9884935,2020-05-15,09:17:48,0,0,Motorbike,"[('chicken curry', 3), ('egg roast', 1)]",0,84.12,3604,7,3.4067
ORD292909,REST1046,CUST04674,COUR4295,-37.8024333,144.9381113,2020-03-07,14:58:01,0,1,Motorbike,"[('fried rice', 3), ('beef chilli', 1), ('chicken curry', 3)]",10,48.888000000000005,3843,8,4.1659
ORD201861,REST1034,CUST13415,COUR2797,-37.810354,145.0100563,2020-06-18,02:22:25,0,0,Motorbike,"[('palak paneer', 3), ('dehati chicken', 3)]",10,81.054,7379,15,4.0574
ORD260396,REST1034,CUST02438,COUR0375,-37.82528350000001,145.011873,2020-12-28,22:56:42,0,0,Bike,"[('manchurian', 3), ('dehati chicken', 1)]",10,32.751,7768,39,6.3512
ORD122139,REST1046,CUST01459,COUR4003,-37.8151617,144.9714535,2020-02-27,19:38:54,1,0,Motorbike,"[('murgh ghee roast', 2), ('draught beer', 3), ('fried rice', 1)]",45,24.464000000000002,3621,7,4.8355
ORD172652,REST1034,CUST11567,COUR1057,-37.7997767,144.9829167,2020-09-18,11:08:34,0,0,Car,"[('dehati chicken', 3), ('mango lassi', 1)]",0,25.94,5150,12,4.4812
ORD187334,REST1046,CUST11114,COUR2455,-37.8101226,144.947491,2020-09-21,03:57:21,0,0,Bike,"[('french fries', 3), ('draught beer', 2), ('fish fingers', 3)]",0,122.88,2574,13,3.9474
ORD003565,REST0348,CUST08664,COUR2706,-37.8015275,144.9622044,2020-02-18,10:01:19,0,0,Car,"[('dal makhani', 2), ('paneer tikka', 2), ('makke ki roti', 2)]",0,106.72,3249,8,3.4353
ORD134532,REST1034,CUST04225,COUR3916,-37.8193905,144.98516909999995,2020-04-03,18:35:36,1,0,Car,"[('mango lassi', 2), ('butter chicken', 1), ('dehati chicken', 3)]",40,35.766,5104,12,5.4396
ORD031452,REST0931,CUST12230,COUR4841,-37.8025669,144.94566830000005,2020-01-26,07:23:04,0,1,Bike,"[('filter coffee', 1), ('butter masala dosa', 2), ('idli', 3), ('masala dosa', 3)]",0,158.92,3526,18,5.2308
ORD229740,REST1034,CUST08471,COUR4726,-37.8018589,144.9927696,2020-01-08,13:50:46,1,0,Car,"[('palak paneer', 2), ('mango lassi', 1)]",45,31.697,5996,14,5.6258
ORD257378,REST1034,CUST09297,COUR0376,-37.81367570000001,144.9572213,2020-08-24,07:30:59,0,0,Motorbike,"[('paneer lababdar', 2), ('dehati chicken', 3), ('chilli chicken', 1)]",20,39.288000000000004,2304,5,2.9886
ORD278314,REST0931,CUST13261,COUR4480,-37.8191281,144.9651789,2020-02-09,23:40:13,0,1,Car,"[('chole', 1), ('tea', 2)]",10,47.321999999999996,3444,8,4.2341
ORD173279,REST0348,CUST06594,COUR2988,-37.8255378,144.9847156,2020-03-21,00:03:57,0,1,Motorbike,"[('makke ki roti', 3), ('kheer', 3), ('lassi', 2), ('chicken tikka', 2)]",0,145.98,4570,9,4.6363
ORD345036,REST1034,CUST12330,COUR3891,-37.8185433,144.9596504,2020-10-09,00:15:49,0,0,Car,"[('chilli chicken', 1), ('butter chicken', 1), ('palak paneer', 3)]",0,110.77,2763,7,3.2365
ORD036789,REST1455,CUST01482,COUR2092,-37.7994374,144.96075349999995,2020-09-27,21:53:24,0,1,Bike,"[('beef fry', 2), ('fish', 3)]",40,37.65,1588,8,4.3071
ORD068074,REST1455,CUST02256,COUR2870,-37.8193166,144.9621428,2020-05-31,06:15:49,0,1,Motorbike,"[('chicken curry', 1), ('beef fry', 2)]",20,44.888000000000005,3055,6,4.122
ORD243382,REST1034,CUST09277,COUR4477,-37.81350020000001,144.965631,2020-07-06,23:40:13,0,0,Car,"[('palak paneer', 1), ('dehati chicken', 1), ('mango lassi', 1)]",20,31.16,3154,8,3.5118
ORD016049,REST1046,CUST05960,COUR2876,-37.8205013,144.9656908,2020-08-22,13:15:09,1,1,Car,"[('chicken curry', 1), ('french fries', 3)]",40,36.54,2867,7,5.8488
ORD140214,REST1034,CUST02064,COUR3575,-37.7980773,145.0076602,2020-07-14,12:11:52,1,0,Car,"[('mango lassi', 2), ('palak paneer', 1), ('chilli chicken', 3)]",40,48.69,7653,18,8.5203
ORD234593,REST1046,CUST07154,COUR1185,-37.8144495,145.015303,2020-05-17,03:53:24,0,1,Car,"[('chicken curry', 3), ('murgh ghee roast', 3), ('fish fingers', 1), ('french fries', 3)]",0,121.37,8744,21,5.5487
ORD286406,REST1046,CUST10971,COUR3482,-37.8090778,144.9490486,2020-09-06,23:40:13,0,1,Car,"[('fried rice', 3), ('chicken curry', 2), ('beef chilli', 1), ('fish fingers', 3)]",20,83.152,2874,7,4.6357
ORD082057,REST1046,CUST01880,COUR2887,-37.8240695,144.98526280000004,2020-01-02,20:54:03,0,0,Car,"[('fish fingers', 2), ('french fries', 1), ('draught beer', 3), ('murgh ghee roast', 2)]",20,73.808,4621,11,2.09065
ORD011687,REST1034,CUST10722,COUR3886,-37.8122909,144.9840426,2020-11-09,15:01:58,0,0,Bike,"[('palak paneer', 2), ('butter chicken', 1), ('manchurian', 1)]",0,83.68,4889,24,4.9706
ORD308617,REST0931,CUST10797,COUR1632,-37.8140756,144.95583080000003,2020-06-09,18:35:36,1,0,Car,"[('vada', 1), ('idli', 1)]",45,22.55,3093,7,4.5676
ORD090867,REST0348,CUST02529,COUR3641,-37.812431200000006,144.9381741,2020-01-05,01:23:04,0,1,Car,"[('makke ki roti', 2), ('paneer tikka', 3), ('chole bhature', 1)]",0,110.65,1482,4,4.4526
ORD119985,REST1455,CUST00183,COUR4674,-37.7995297,144.9551395,2020-08-26,12:07:54,1,0,Motorbike,"[('chicken curry', 1), ('egg roast', 3)]",20,68.704,1827,4,4.5215
ORD254470,REST0348,CUST10102,COUR2050,-37.8038433,144.9533741,2020-05-11,08:46:09,0,0,Motorbike,"[('dal makhani', 1), ('chicken tikka', 2), ('makke ki roti', 3)]",40,62.1,2519,5,3.5191
ORD170618,REST1034,CUST11113,COUR1478,-37.810224700000006,144.9475695,2020-07-13,14:02:38,0,0,Bike,"[('paneer lababdar', 2), ('mango lassi', 3), ('manchurian', 3), ('butter chicken', 3)]",0,150.85,1292,6,3.6319
ORD012663,REST0348,CUST05401,COUR3470,-37.8156495,144.9639803,2020-07-07,00:55:23,0,0,Car,"[('butter chicken', 2), ('paan ice cream', 3)]",0,67.98,2319,6,3.2931
ORD182080,REST0931,CUST08927,COUR1385,-37.81674829999999,144.96998069999995,2020-11-11,17:52:05,0,0,Car,"[('idli', 3), ('chole', 2)]",40,55.938,2468,6,4.58085
ORD115941,REST0348,CUST08478,COUR3729,-37.82313660000001,144.9783733,2020-09-17,12:31:38,1,0,Motorbike,"[('mutton curry', 1), ('lassi', 2)]",0,28.07,3856,8,4.8048
ORD130136,REST1455,CUST09224,COUR1995,-37.8073918,144.9628592,2020-11-20,02:30:19,0,0,Motorbike,"[('beef fry', 2), ('fish', 3), ('sea food', 1)]",20,61.552,1669,3,3.0789
ORD068608,REST1046,CUST13027,COUR2762,-37.8124144,144.95359380000005,2020-04-18,23:20:26,0,1,Motorbike,"[('french fries', 3), ('fried rice', 3), ('draught beer', 1)]",40,50.328,3047,6,4.5268
ORD153658,REST1046,CUST10511,COUR0923,-37.8244377,144.9904315,2020-03-03,07:03:17,0,0,Car,"[('fish fingers', 1), ('chicken curry', 2)]",20,26.896,5214,13,3.6914
ORD301318,REST1046,CUST11455,COUR2715,-37.8129206,144.9913125,2020-03-26,14:42:11,0,0,Car,"[('draught beer', 2), ('murgh ghee roast', 2), ('chicken curry', 1), ('fish fingers', 3)]",0,94.52,5464,13,3.7707
ORD170292,REST1034,CUST06406,COUR4102,-37.8023453,145.00481609999997,2020-01-09,04:52:44,0,0,Bike,"[('manchurian', 2), ('palak paneer', 1), ('dehati chicken', 2), ('paneer lababdar', 1)]",10,59.157,7020,35,5.8034
ORD070993,REST0931,CUST13286,COUR1667,-37.82223079999999,144.9782323,2020-11-27,20:30:19,0,0,Bike,"[('butter masala dosa', 1), ('masala dosa', 3)]",40,47.676,3245,16,4.6851
ORD329592,REST1455,CUST04085,COUR0184,-37.8212301,144.9838718,2020-05-11,08:14:30,0,0,Car,"[('fish', 1), ('chicken stew', 2), ('sea food', 1)]",0,65.3,3133,8,3.6195
ORD049342,REST1046,CUST03527,COUR0622,-37.8208849,145.0024077,2020-11-10,11:04:36,0,0,Motorbike,"[('chicken curry', 3), ('beef chilli', 1), ('fish fingers', 3), ('french fries', 1)]",45,57.75,6428,13,1.9728
ORD060367,REST0931,CUST11776,COUR3787,-37.8196811,144.97115060000004,2020-03-19,07:42:51,0,0,Motorbike,"[('masala dosa', 3), ('butter masala dosa', 3), ('filter coffee', 1), ('idli', 1)]",0,133.69,3206,6,3.1196
ORD115120,REST1046,CUST04597,COUR0915,-37.8118576,144.9458988,2020-03-15,08:06:35,0,1,Bike,"[('murgh ghee roast', 2), ('chicken curry', 2), ('french fries', 3)]",45,47.36600000000001,3404,17,5.046
ORD210400,REST0348,CUST08569,COUR2846,-37.80608,144.9401291,2020-12-23,20:18:27,0,0,Bike,"[('chicken tikka', 1), ('chole bhature', 1)]",20,21.488000000000003,2595,13,4.1781
ORD038578,REST1034,CUST10013,COUR1988,-37.8094666,144.9992353,2020-06-13,02:26:22,0,1,Car,"[('butter chicken', 3), ('manchurian', 2), ('dehati chicken', 3), ('paneer lababdar', 1)]",45,66.699,6050,15,4.9473
ORD278586,REST1034,CUST09203,COUR2369,-37.8087869,144.96674380000005,2020-03-11,03:41:32,0,0,Car,"[('butter chicken', 1), ('palak paneer', 2), ('chilli chicken', 2)]",0,99.4,3074,7,3.0818
ORD132681,REST1046,CUST09981,COUR0613,-37.80009,144.9620352,2020-08-05,22:13:11,0,0,Motorbike,"[('fish fingers', 1), ('french fries', 2), ('draught beer', 1)]",40,36.528,4608,9,3.3364
ORD001891,REST0348,CUST08682,COUR0572,-37.8040911,144.96191140000005,2020-01-18,13:23:04,1,1,Car,"[('butter chicken', 3), ('chicken tikka', 1), ('kheer', 2)]",10,63.135,2970,7,5.7895
ORD009281,REST1455,CUST03065,COUR3131,-37.7993191,144.97025259999995,2020-12-28,12:23:44,1,0,Car,"[('egg roast', 3), ('chicken curry', 2)]",0,106.69,395,1,4.3571
ORD050757,REST1455,CUST08813,COUR4835,-37.82962,144.98793,2020-06-25,05:56:02,0,0,Car,"[('fish', 3), ('chicken stew', 3), ('sea food', 1)]",40,62.748000000000005,4189,10,3.9247
ORD201335,REST0931,CUST00555,COUR3115,-37.8227036,144.9640081,2020-04-06,04:01:19,0,0,Car,"[('masala dosa', 3), ('upma', 3), ('tea', 1), ('filter coffee', 3)]",20,170.032,3500,8,3.5082
ORD122864,REST1034,CUST13160,COUR2052,-37.8118571,144.9361346,2020-05-11,09:49:27,0,0,Motorbike,"[('chilli chicken', 3), ('manchurian', 2)]",20,47.536,428,1,3.1006
ORD058062,REST1046,CUST05669,COUR0608,-37.8125054,144.9375284,2020-06-23,11:20:26,0,0,Bike,"[('chicken curry', 3), ('fish fingers', 2), ('fried rice', 2), ('draught beer', 2)]",0,88.36,1862,9,3.6066
ORD280087,REST1046,CUST08760,COUR0505,-37.8127402,145.0130446,2020-12-23,09:01:58,0,0,Motorbike,"[('chicken curry', 3), ('murgh ghee roast', 2)]",0,39.86,7629,15,3.8092
ORD143528,REST1034,CUST13709,COUR0550,-37.81567379999999,144.9663184,2020-09-23,06:51:25,0,0,Motorbike,"[('dehati chicken', 1), ('butter chicken', 1)]",0,30.41,3320,7,3.1142
ORD180479,REST0931,CUST07753,COUR0383,-37.8187505,144.9530398,2020-01-21,01:46:48,0,0,Motorbike,"[('idli', 1), ('upma', 1), ('tea', 2), ('masala dosa', 3)]",45,77.59899999999999,3828,8,3.06
ORD060017,REST0348,CUST08952,COUR1695,-37.8025801,144.9656274,2020-08-02,06:03:57,0,1,Bike,"[('paneer tikka', 2), ('makke ki roti', 3), ('kheer', 1)]",0,113.24,3382,17,5.2585
ORD256309,REST1046,CUST05356,COUR3373,-37.8119336,144.9672113,2020-04-22,04:40:52,0,0,Car,"[('fish fingers', 2), ('french fries', 2)]",0,73.68,3681,9,3.5803
ORD040214,REST1455,CUST03058,COUR1123,-37.8020086,144.9727178,2020-01-11,05:16:29,0,1,Motorbike,"[('appam', 2), ('egg roast', 2)]",0,71.36,391,1,3.8201
ORD279499,REST0348,CUST13232,COUR4144,-37.821232,144.9780544,2020-01-15,20:42:11,0,0,Motorbike,"[('butter chicken', 3), ('chicken tikka', 3), ('makke ki roti', 3)]",0,133.2,3901,8,3.0033
ORD033025,REST1034,CUST12298,COUR4575,-37.8116892,144.9564892,2020-05-29,13:34:56,1,0,Motorbike,"[('dehati chicken', 2), ('manchurian', 2)]",0,31.82,2102,4,4.9803
ORD084223,REST1455,CUST07190,COUR0095,-37.8016961,144.9436348,2020-12-14,10:52:44,0,0,Car,"[('appam', 2), ('chicken curry', 2), ('sea food', 2), ('beef fry', 3)]",45,83.012,3083,7,3.6834
ORD031957,REST0931,CUST09742,COUR0394,-37.8190083,144.9618741,2020-04-26,22:25:03,0,1,Car,"[('chole', 1), ('filter coffee', 1), ('butter masala dosa', 3), ('upma', 2)]",40,66.654,3227,8,4.6909
ORD108622,REST0348,CUST02375,COUR3663,-37.82233239999999,144.9553418,2020-03-15,01:11:12,0,1,Motorbike,"[('paneer tikka', 1), ('butter chicken', 3)]",0,49.22,1795,4,4.3246
ORD179203,REST1034,CUST05273,COUR4340,-37.8187907,144.96542140000003,2020-11-11,11:16:29,0,0,Bike,"[('mango lassi', 2), ('butter chicken', 2)]",0,67.34,3410,17,4.5855
ORD062109,REST0348,CUST04860,COUR1100,-37.8045269,144.9272992,2020-02-14,07:19:07,0,0,Motorbike,"[('kheer', 1), ('chole bhature', 2), ('makke ki roti', 1)]",0,64.2,2928,6,2.7574
ORD215611,REST1034,CUST10216,COUR0931,-37.79900720000001,144.96999319999995,2020-04-18,13:03:17,1,1,Car,"[('manchurian', 3), ('mango lassi', 3), ('chilli chicken', 1)]",0,70.49,4122,10,6.2509
ORD008824,REST1455,CUST09580,COUR3255,-37.8235454,144.9561646,2020-01-26,07:42:51,0,1,Motorbike,"[('chicken curry', 2), ('appam', 1), ('fish', 2), ('beef fry', 3)]",0,126.86,3839,8,4.593
ORD251608,REST0931,CUST10265,COUR1037,-37.826394,144.9519017,2020-11-21,15:13:50,0,1,Bike,"[('tea', 3), ('butter masala dosa', 2), ('vada', 2)]",0,112.44,4571,23,5.7879
ORD066138,REST1034,CUST05617,COUR2033,-37.8133482,144.9377959,2020-07-25,12:03:57,1,1,Motorbike,"[('mango lassi', 1), ('butter chicken', 2), ('dehati chicken', 2)]",0,69.75,250,0,5.1247
ORD305052,REST0348,CUST10590,COUR2075,-37.8067703,144.9323875,2020-12-03,06:23:44,0,0,Motorbike,"[('lassi', 1), ('makke ki roti', 2), ('dal makhani', 3), ('paneer tikka', 1)]",40,67.152,2431,5,2.9939999999999998
ORD250119,REST0931,CUST00895,COUR4627,-37.82043770000001,144.960317,2020-04-05,21:41:32,0,1,Bike,"[('tea', 1), ('masala dosa', 2)]",45,34.595,3474,17,5.3092
ORD251305,REST1034,CUST03326,COUR4221,-37.8033326,144.95250159999995,2020-10-21,09:37:34,0,0,Bike,"[('mango lassi', 2), ('manchurian', 1), ('paneer lababdar', 3), ('chilli chicken', 2)]",45,45.507,2293,11,3.7073
ORD289209,REST1455,CUST09224,COUR1618,-37.8073918,144.9628592,2020-10-05,13:50:46,1,0,Car,"[('beef fry', 1), ('fish', 3), ('appam', 2), ('sea food', 3)]",45,63.608000000000004,1669,4,4.7102
ORD167840,REST0931,CUST06750,COUR0030,-37.80739570000001,144.9709222,2020-02-16,06:07:54,0,1,Motorbike,"[('idli', 3), ('chole', 1)]",10,64.809,1509,3,3.9519
ORD075882,REST1455,CUST05116,COUR2650,-37.8223746,144.947751,2020-10-30,01:54:43,0,0,Motorbike,"[('beef fry', 2), ('appam', 2)]",0,63.28,4227,8,3.4205
ORD225935,REST0348,CUST06461,COUR1776,-37.80502620000001,144.9960685,2020-03-03,01:42:51,0,0,Motorbike,"[('dal makhani', 1), ('lassi', 3)]",40,23.951999999999998,5760,12,3.6223
ORD047123,REST1034,CUST09097,COUR4497,-37.816547,144.9703239,2020-01-22,08:42:11,0,0,Motorbike,"[('dehati chicken', 2), ('butter chicken', 1), ('palak paneer', 3), ('paneer lababdar', 2)]",40,76.95,3743,7,3.4039
ORD339229,REST0931,CUST11679,COUR1598,-37.7996025,144.99537890000005,2020-04-08,23:00:39,0,0,Motorbike,"[('butter masala dosa', 3), ('idli', 1), ('upma', 2), ('vada', 3)]",45,87.434,1658,3,2.8898
ORD177018,REST0931,CUST09647,COUR1993,-37.8020879,145.00374,2020-12-23,01:34:56,0,0,Car,"[('chole', 1), ('idli', 1)]",45,20.982,2472,6,3.388
ORD317210,REST0348,CUST10152,COUR0723,-37.8113935,145.00149140000005,2020-12-09,02:06:35,0,0,Car,"[('dal makhani', 1), ('lassi', 2), ('kheer', 2)]",0,57.63,5843,14,4.235
ORD308313,REST1455,CUST06885,COUR2092,-37.8069634,144.96259619999995,2020-04-14,11:00:39,0,0,Bike,"[('fish', 3), ('beef fry', 2), ('appam', 3), ('egg roast', 2)]",0,148.1,1725,9,3.3434
ORD061102,REST0931,CUST00341,COUR3308,-37.820872,144.9826286,2020-10-20,07:23:04,0,0,Motorbike,"[('upma', 3), ('butter masala dosa', 3)]",40,55.08,3027,6,4.4082
ORD206468,REST1455,CUST09078,COUR0787,-37.82221610000001,144.93129309999995,2020-05-10,17:56:02,0,1,Motorbike,"[('egg roast', 1), ('sea food', 2)]",20,40.056,5896,12,5.1673
ORD128747,REST1046,CUST01363,COUR2887,-37.8087302,145.004482,2020-08-16,06:31:38,0,1,Car,"[('draught beer', 2), ('beef chilli', 1), ('chicken curry', 2)]",20,28.191999999999997,6969,17,5.5316
ORD216661,REST1046,CUST10185,COUR2457,-37.8217972,144.9750466,2020-06-12,17:16:29,0,0,Motorbike,"[('beef chilli', 2), ('french fries', 3), ('fish fingers', 3), ('draught beer', 2)]",40,83.616,3669,7,3.6526
ORD167617,REST0348,CUST13582,COUR3072,-37.8200618,144.9450101,2020-03-04,02:22:25,0,0,Car,"[('butter chicken', 1), ('lassi', 2), ('chole bhature', 2)]",45,31.416,402,1,2.5869
ORD177117,REST0931,CUST00819,COUR4654,-37.8167697,144.9581959,2020-10-28,16:21:05,0,0,Car,"[('filter coffee', 3), ('vada', 3), ('butter masala dosa', 3)]",40,94.932,3250,8,3.7653
ORD061974,REST0931,CUST13503,COUR4429,-37.802443200000006,144.9915219,2020-03-27,00:23:44,0,0,Car,"[('vada', 2), ('filter coffee', 1)]",45,37.499,1664,4,3.2316
ORD099351,REST1046,CUST05948,COUR0604,-37.8201236,144.9659657,2020-09-16,06:00:00,0,0,Motorbike,"[('fish fingers', 1), ('draught beer', 1)]",10,22.644000000000002,2816,6,3.1001
ORD247717,REST1455,CUST11001,COUR0110,-37.8057088,144.9577081,2020-01-20,19:15:09,1,0,Car,"[('appam', 2), ('fish', 3), ('egg roast', 3), ('sea food', 1)]",40,80.814,2203,5,4.4189
ORD110867,REST0931,CUST07850,COUR4118,-37.8164452,144.983974,2020-09-20,10:40:52,0,1,Car,"[('vada', 1), ('masala dosa', 1)]",45,26.224,2429,6,4.4538
ORD260901,REST1034,CUST07772,COUR1972,-37.8143599,144.9658294,2020-05-14,22:48:47,0,0,Car,"[('chilli chicken', 1), ('dehati chicken', 2), ('palak paneer', 3), ('manchurian', 1)]",0,107.61,3235,8,3.2169
ORD202163,REST0931,CUST03748,COUR3014,-37.8133423,144.9354927,2020-05-04,11:04:36,0,0,Bike,"[('chole', 3), ('tea', 1), ('masala dosa', 2)]",40,75.936,5304,27,5.5067
ORD298509,REST0348,CUST02971,COUR4575,-37.79984320000001,144.9470114,2020-02-25,11:48:07,0,0,Motorbike,"[('lassi', 3), ('mutton curry', 2), ('paan ice cream', 3), ('chole bhature', 1)]",45,60.005,2763,6,3.3205
ORD171320,REST1455,CUST07205,COUR0975,-37.8113345,144.958376,2020-02-28,07:42:51,0,0,Motorbike,"[('chicken stew', 2), ('egg roast', 2), ('beef fry', 1), ('appam', 1)]",0,116.98,2732,5,3.5345
ORD324032,REST1046,CUST06627,COUR2195,-37.8243679,144.9828821,2020-09-03,17:52:05,0,0,Bike,"[('fish fingers', 3), ('draught beer', 2), ('fried rice', 3), ('chicken curry', 2)]",40,64.836,4633,23,4.9136
ORD155438,REST1046,CUST08744,COUR2243,-37.8164706,144.966998,2020-07-30,00:27:41,0,0,Car,"[('beef chilli', 2), ('french fries', 3), ('fried rice', 1), ('chicken curry', 1)]",45,46.981,3194,8,3.4703
ORD308047,REST1046,CUST07880,COUR4630,-37.8156949,144.97913400000004,2020-11-15,22:17:08,0,1,Car,"[('french fries', 2), ('beef chilli', 1), ('murgh ghee roast', 3)]",0,70.81,4168,10,5.0616
ORD239386,REST0931,CUST04168,COUR4345,-37.8198073,144.9810554,2020-04-08,14:30:19,0,0,Bike,"[('masala dosa', 1), ('butter masala dosa', 3)]",10,44.55,2810,14,4.3034
ORD116768,REST1455,CUST04541,COUR1251,-37.8156862,144.95019430000005,2020-11-30,01:58:40,0,0,Motorbike,"[('sea food', 3), ('egg roast', 2)]",40,51.57,4092,8,1.82215
ORD253262,REST0348,CUST05856,COUR3767,-37.8064433,144.941667,2020-09-17,22:40:52,0,0,Bike,"[('paneer tikka', 3), ('kheer', 2), ('mutton curry', 1), ('butter chicken', 3)]",10,109.34100000000001,1997,10,3.4292
ORD248100,REST0348,CUST03457,COUR1859,-37.8234045,144.9948876,2020-11-30,06:51:25,0,0,Motorbike,"[('paan ice cream', 3), ('lassi', 1), ('kheer', 1), ('mutton curry', 1)]",10,71.541,5276,11,3.498
ORD286914,REST0931,CUST08213,COUR2131,-37.8186136,144.9991629,2020-09-05,00:39:33,0,1,Car,"[('butter masala dosa', 2), ('chole', 3), ('upma', 2), ('idli', 2)]",45,87.296,3787,9,4.47
ORD025562,REST0931,CUST08830,COUR1645,-37.8052587,144.9615481,2020-11-18,21:37:34,0,0,Car,"[('tea', 1), ('filter coffee', 2)]",10,50.184,2198,5,2.8303
ORD081508,REST1455,CUST08282,COUR4710,-37.8208956,144.9560135,2020-04-12,11:52:05,0,1,Motorbike,"[('chicken curry', 1), ('fish', 2), ('appam', 3)]",0,81.08,3595,7,4.5243
ORD198938,REST1034,CUST06080,COUR1474,-37.8078058,144.9422467,2020-06-16,19:23:04,1,0,Motorbike,"[('butter chicken', 1), ('chilli chicken', 2)]",0,50.7,1637,3,4.4848
ORD126587,REST1046,CUST03533,COUR0224,-37.8186997,145.0052457,2020-12-23,22:21:05,0,0,Car,"[('chicken curry', 1), ('french fries', 1), ('murgh ghee roast', 2), ('fried rice', 2)]",10,53.244,6506,16,4.619
ORD227621,REST1455,CUST06334,COUR1714,-37.806787,144.9585803,2020-01-29,05:36:15,0,0,Motorbike,"[('beef fry', 3), ('chicken curry', 3), ('fish', 2)]",0,133.68,2117,4,3.3228
ORD022948,REST1046,CUST08832,COUR1660,-37.8066144,144.96146159999995,2020-01-12,01:19:07,0,1,Motorbike,"[('fried rice', 3), ('murgh ghee roast', 1), ('french fries', 1), ('fish fingers', 1)]",40,41.946000000000005,3907,8,4.3164
ORD015825,REST1046,CUST00778,COUR2240,-37.80506920000001,144.9572442,2020-03-29,09:57:21,0,1,Car,"[('french fries', 3), ('fried rice', 3), ('fish fingers', 1), ('draught beer', 3)]",40,69.132,3699,9,4.7939
ORD082145,REST1034,CUST13023,COUR0085,-37.8122377,144.9535131,2020-10-23,04:17:08,0,0,Car,"[('dehati chicken', 2), ('butter chicken', 3)]",10,77.00399999999999,1972,5,2.9697
ORD339902,REST0348,CUST04889,COUR0401,-37.8181592,144.97590259999996,2020-06-23,21:45:29,0,0,Car,"[('paan ice cream', 3), ('lassi', 3)]",45,39.946,3477,8,3.4856
ORD181029,REST1455,CUST00660,COUR2733,-37.8023074,144.9972956,2020-11-01,17:48:07,0,1,Car,"[('beef fry', 2), ('fish', 3), ('appam', 3)]",40,62.832,2412,6,4.2778
ORD088640,REST1046,CUST09454,COUR0263,-37.7990476,144.97836919999997,2020-12-01,07:07:15,0,0,Bike,"[('murgh ghee roast', 2), ('draught beer', 2), ('fish fingers', 2), ('beef chilli', 3)]",10,83.646,5566,28,5.3871
ORD067525,REST0931,CUST08590,COUR1009,-37.8209026,144.9623358,2020-06-09,22:09:13,0,0,Bike,"[('chole', 2), ('upma', 1)]",40,38.646,3412,17,4.2947
ORD147910,REST0931,CUST09470,COUR3339,-37.8005335,144.9458871,2020-10-27,14:22:25,0,0,Motorbike,"[('filter coffee', 3), ('idli', 3)]",40,66.546,3336,7,3.3144
ORD167120,REST1034,CUST10600,COUR3349,-37.8063974,144.93179469999995,2020-09-24,15:01:58,0,0,Car,"[('chilli chicken', 2), ('mango lassi', 3)]",40,31.65,1226,3,3.3482
ORD161467,REST0348,CUST05373,COUR2964,-37.81262460000001,144.9612396,2020-10-26,08:30:19,0,0,Motorbike,"[('chicken tikka', 3), ('chole bhature', 3)]",10,72.52199999999999,2256,5,3.0282
ORD179969,REST0348,CUST01425,COUR4058,-37.8094889,144.9679925,2020-01-17,09:49:27,0,0,Car,"[('dal makhani', 2), ('makke ki roti', 1), ('butter chicken', 2)]",0,71.09,2949,7,3.4675
ORD139974,REST1034,CUST08629,COUR1877,-37.79909650000001,144.9430502,2020-03-31,06:00:00,0,0,Car,"[('chilli chicken', 2), ('mango lassi', 3), ('dehati chicken', 1)]",10,52.578,2192,5,3.1907
ORD080748,REST0931,CUST11627,COUR1330,-37.8244743,144.956671,2020-04-02,19:54:43,1,0,Bike,"[('vada', 1), ('filter coffee', 1)]",0,44.11,4109,21,6.1944
ORD348235,REST0348,CUST05891,COUR2700,-37.800181,144.95489819999997,2020-08-05,21:33:37,0,0,Bike,"[('kheer', 1), ('chicken tikka', 3), ('paan ice cream', 1)]",10,58.751999999999995,3020,15,4.3732
ORD249344,REST0348,CUST06199,COUR4518,-37.8149156,144.9354055,2020-05-07,18:23:44,1,0,Bike,"[('paan ice cream', 3), ('chicken tikka', 3), ('butter chicken', 2)]",10,94.041,1817,9,4.6167
ORD111407,REST1455,CUST11707,COUR3942,-37.8100036,144.9953046,2020-10-29,07:03:17,0,0,Car,"[('beef fry', 1), ('appam', 1), ('chicken curry', 2), ('fish', 2)]",0,91.56,2872,7,3.2314
ORD226998,REST1455,CUST03723,COUR4738,-37.8005312,145.01384309999997,2020-03-07,00:43:30,0,1,Bike,"[('appam', 2), ('egg roast', 3), ('fish', 1)]",10,91.98,3881,19,6.0866
ORD025657,REST0348,CUST07623,COUR0855,-37.813352,144.9402417,2020-03-10,09:41:32,0,0,Bike,"[('mutton curry', 1), ('dal makhani', 1)]",0,25.04,1230,6,3.3655
ORD328724,REST1455,CUST10819,COUR2455,-37.808112,144.9567149,2020-04-28,09:37:34,0,0,Bike,"[('sea food', 2), ('egg roast', 1), ('chicken stew', 1)]",0,71.05,2289,11,3.8648
ORD125601,REST0931,CUST03737,COUR1920,-37.8049698,144.9736071,2020-01-12,04:01:19,0,1,Car,"[('masala dosa', 2), ('upma', 3)]",40,67.878,1120,3,3.5745
ORD127084,REST0348,CUST02095,COUR2599,-37.8004785,145.0183699,2020-03-04,11:36:15,0,0,Car,"[('chole bhature', 3), ('lassi', 2)]",0,61.25,8226,20,4.8337
ORD285869,REST0931,CUST08147,COUR4550,-37.8178416,145.0077888,2020-10-09,07:11:12,0,0,Bike,"[('chole', 2), ('tea', 1)]",0,58.12,4403,22,4.9116
ORD046479,REST0931,CUST10053,COUR0644,-37.802362,144.9915361,2020-09-16,12:43:30,1,0,Car,"[('tea', 2), ('filter coffee', 3), ('chole', 1)]",45,61.985,1538,4,4.6477
ORD246059,REST1034,CUST09587,COUR0746,-37.81632379999999,145.01423469999997,2020-04-22,16:29:00,0,0,Motorbike,"[('chilli chicken', 1), ('butter chicken', 3)]",0,87.2,8236,16,4.5856
ORD076445,REST0348,CUST12980,COUR4400,-37.8119873,144.9522871,2020-09-04,08:54:03,0,0,Bike,"[('chole bhature', 2), ('paan ice cream', 3), ('paneer tikka', 1), ('lassi', 2)]",0,110.96,1807,9,3.5405
ORD045476,REST0348,CUST04939,COUR1060,-37.8115375,144.9710205,2020-07-29,01:42:51,0,0,Car,"[('butter chicken', 2), ('mutton curry', 2), ('paneer tikka', 1), ('dal makhani', 3)]",0,102.89,2967,7,3.215
ORD151743,REST1046,CUST02526,COUR3156,-37.8132619,144.9385342,2020-01-09,13:34:56,1,0,Bike,"[('draught beer', 2), ('fish fingers', 1), ('chicken curry', 2), ('beef chilli', 1)]",40,32.532,1743,9,5.2335
ORD246053,REST0348,CUST07761,COUR2042,-37.8133821,144.9651246,2020-03-31,18:43:30,1,0,Motorbike,"[('chole bhature', 2), ('makke ki roti', 1)]",20,40.84,2451,5,4.7496
ORD231561,REST1046,CUST12533,COUR4356,-37.8190296,144.9529903,2020-12-26,18:55:23,1,1,Car,"[('murgh ghee roast', 3), ('draught beer', 2)]",0,39.21,1949,5,5.2672
ORD221530,REST1455,CUST04169,COUR4173,-37.8214208,144.98445790000005,2020-05-07,09:13:50,0,0,Motorbike,"[('sea food', 1), ('fish', 2), ('chicken stew', 1), ('beef fry', 2)]",0,88.77,3146,6,3.1358
ORD014397,REST1455,CUST13190,COUR3264,-37.8193607,144.97659480000004,2020-07-19,08:06:35,0,1,Motorbike,"[('appam', 1), ('beef fry', 3), ('egg roast', 3), ('chicken curry', 1)]",40,91.69200000000001,2635,5,4.3025
ORD116557,REST0931,CUST09196,COUR3919,-37.8096182,144.9638842,2020-05-13,10:13:11,0,0,Motorbike,"[('idli', 3), ('masala dosa', 1)]",0,74.4,2193,4,2.6249
ORD236165,REST0931,CUST05049,COUR0582,-37.8093688,144.97277749999995,2020-08-23,22:40:52,0,1,Bike,"[('vada', 3), ('filter coffee', 2)]",0,112.29,1504,8,4.412
ORD314496,REST1455,CUST00296,COUR2383,-37.8026649,144.95578730000003,2020-11-01,14:02:38,0,1,Car,"[('beef fry', 2), ('chicken stew', 3), ('chicken curry', 1)]",0,119.05,2005,5,4.0471
ORD238312,REST1034,CUST08708,COUR0098,-37.8195447,144.9599034,2020-01-11,17:48:07,0,1,Motorbike,"[('mango lassi', 2), ('butter chicken', 3), ('chilli chicken', 2), ('manchurian', 3)]",20,119.008,2865,6,4.4551
ORD171389,REST1034,CUST08597,COUR2594,-37.8215275,144.9617357,2020-02-26,05:56:02,0,0,Motorbike,"[('butter chicken', 1), ('chilli chicken', 2)]",0,50.7,3216,6,3.5365
ORD200516,REST0931,CUST00355,COUR1118,-37.8205224,144.9840059,2020-11-13,06:23:44,0,0,Bike,"[('idli', 1), ('tea', 2)]",40,28.974,2955,15,3.9383
ORD040296,REST0931,CUST09780,COUR2656,-37.8143653,144.9882986,2020-01-15,09:13:50,0,0,Bike,"[('filter coffee', 1), ('chole', 2), ('upma', 2), ('butter masala dosa', 2)]",45,68.024,2601,13,3.9688
ORD037147,REST1034,CUST01259,COUR2998,-37.7990458,144.9783525,2020-04-15,11:04:36,0,0,Bike,"[('dehati chicken', 1), ('palak paneer', 1), ('manchurian', 2), ('paneer lababdar', 2)]",0,69.62,4761,24,5.4115
ORD175680,REST0348,CUST03870,COUR4800,-37.812884,144.9892226,2020-10-24,06:31:38,0,1,Motorbike,"[('chole bhature', 2), ('dal makhani', 1)]",10,39.177,4745,9,4.5029
ORD118641,REST0931,CUST13748,COUR2745,-37.8172549,144.9531826,2020-06-07,02:54:03,0,1,Bike,"[('chole', 3), ('idli', 3)]",0,114.45,3589,18,5.3049
ORD153349,REST0348,CUST02815,COUR1550,-37.8108465,144.9995362,2020-02-28,05:00:39,0,0,Motorbike,"[('paan ice cream', 2), ('kheer', 3), ('dal makhani', 1)]",0,84.84,5891,12,3.4683
ORD267301,REST1046,CUST10094,COUR1640,-37.8176817,144.983171,2020-03-28,16:01:19,0,1,Motorbike,"[('fish fingers', 2), ('murgh ghee roast', 3)]",0,64.81,4515,9,4.8769
ORD216680,REST0348,CUST06544,COUR2619,-37.8243049,144.9844019,2020-01-11,04:52:44,0,1,Car,"[('mutton curry', 1), ('paneer tikka', 3)]",10,57.159,4531,11,4.8907
ORD129655,REST1034,CUST04534,COUR0619,-37.8156632,144.9500919,2020-12-24,02:42:11,0,0,Motorbike,"[('palak paneer', 2), ('dehati chicken', 1)]",45,29.904,2541,5,3.326
ORD204098,REST1046,CUST03094,COUR0420,-37.8084499,145.01278119999995,2020-06-04,08:58:01,0,0,Car,"[('beef chilli', 3), ('french fries', 1)]",20,34.064,7814,19,4.3081
ORD048004,REST1046,CUST03988,COUR3252,-37.8240357,144.9436033,2020-11-11,14:34:17,0,0,Bike,"[('fish fingers', 1), ('chicken curry', 1), ('fried rice', 3), ('french fries', 1)]",0,68.28,686,3,2.8080000000000003
ORD084341,REST1046,CUST09215,COUR1610,-37.8104033,144.96080980000005,2020-10-15,07:30:59,0,0,Motorbike,"[('chicken curry', 3), ('french fries', 3)]",40,45.324,3518,7,3.4357
ORD156690,REST0931,CUST04993,COUR3305,-37.8126529,144.9740747,2020-01-28,15:49:27,0,0,Car,"[('idli', 3), ('vada', 1), ('tea', 3), ('upma', 1)]",40,86.322,1820,4,2.8806
ORD297155,REST1034,CUST03771,COUR0162,-37.8231903,144.9378251,2020-01-18,23:48:07,0,1,Bike,"[('paneer lababdar', 3), ('mango lassi', 2)]",0,46.54,1997,10,5.1205
ORD293375,REST1455,CUST12842,COUR2464,-37.7997859,144.9348862,2020-09-14,08:22:25,0,0,Bike,"[('appam', 1), ('egg roast', 2), ('beef fry', 2), ('chicken curry', 3)]",45,85.305,5212,26,5.4446
ORD032055,REST1046,CUST05213,COUR3539,-37.8197185,144.95990890000004,2020-04-26,07:19:07,0,1,Bike,"[('fish fingers', 3), ('draught beer', 2), ('french fries', 3), ('beef chilli', 3)]",45,81.18,2377,12,4.9099
ORD230164,REST0931,CUST01192,COUR3555,-37.8077721,144.9941233,2020-07-29,19:07:15,1,0,Motorbike,"[('butter masala dosa', 3), ('vada', 1), ('filter coffee', 2), ('upma', 1)]",45,61.606,2303,5,4.1164
ORD009716,REST1455,CUST07824,COUR3803,-37.8167255,144.9843898,2020-08-17,09:01:58,0,0,Bike,"[('appam', 3), ('fish', 1), ('egg roast', 3)]",40,69.714,2646,13,4.0037
ORD140807,REST0348,CUST05373,COUR3065,-37.81262460000001,144.9612396,2020-02-18,02:14:30,0,0,Bike,"[('paan ice cream', 3), ('dal makhani', 2), ('kheer', 1)]",10,79.479,2256,11,3.9858
ORD131462,REST1046,CUST10475,COUR0670,-37.8223835,144.9973513,2020-02-21,08:46:09,0,0,Car,"[('fish fingers', 1), ('draught beer', 1)]",0,25.16,5820,14,4.2059
ORD082479,REST1455,CUST12618,COUR2072,-37.8044436,144.9492177,2020-07-04,16:48:47,0,1,Bike,"[('appam', 1), ('sea food', 1), ('chicken curry', 3)]",45,49.835,2790,14,5.2989
ORD042586,REST0348,CUST11903,COUR4344,-37.8053576,144.9736032,2020-11-28,18:03:57,1,1,Bike,"[('chole bhature', 3), ('paneer tikka', 1)]",45,33.885999999999996,3565,18,7.1334
ORD177422,REST1034,CUST08793,COUR3157,-37.7999733,144.96254009999996,2020-11-27,21:33:37,0,0,Bike,"[('dehati chicken', 3), ('paneer lababdar', 2), ('palak paneer', 1)]",0,60.48,3415,17,4.3032
ORD231563,REST1034,CUST09477,COUR3664,-37.799142,144.946087,2020-11-18,16:32:58,0,0,Bike,"[('butter chicken', 1), ('mango lassi', 1)]",10,30.303,2346,12,3.6648
ORD101520,REST1034,CUST03898,COUR0678,-37.8177994,144.946442,2020-04-07,07:58:40,0,0,Car,"[('paneer lababdar', 1), ('chilli chicken', 2)]",20,28.416,1434,3,3.127
ORD130899,REST0931,CUST00662,COUR0177,-37.7992172,145.0095819,2020-01-04,08:58:01,0,1,Car,"[('upma', 1), ('butter masala dosa', 2)]",10,35.306999999999995,3144,8,4.6106
ORD072350,REST1046,CUST03349,COUR0341,-37.8113027,144.9546005,2020-06-09,20:18:27,0,0,Motorbike,"[('murgh ghee roast', 3), ('fish fingers', 1)]",0,45.83,3009,6,2.9426
ORD284717,REST0931,CUST01526,COUR3282,-37.8274115,144.9872605,2020-02-16,23:44:10,0,1,Motorbike,"[('masala dosa', 3), ('chole', 2), ('vada', 3)]",10,166.93200000000002,4096,8,4.4479
ORD141059,REST1046,CUST05092,COUR0454,-37.8209023,144.95494219999995,2020-09-13,08:06:35,0,1,Motorbike,"[('chicken curry', 2), ('murgh ghee roast', 1), ('french fries', 2)]",0,59.31,1916,4,4.0381
ORD230472,REST0931,CUST04449,COUR0547,-37.8221831,144.93278869999997,2020-09-26,17:12:31,0,1,Car,"[('filter coffee', 1), ('upma', 2)]",0,63.98,6082,15,5.1387
ORD158396,REST1455,CUST03190,COUR3855,-37.8088654,144.9291692,2020-03-02,00:35:36,0,0,Car,"[('appam', 1), ('beef fry', 2), ('sea food', 2)]",0,77.67,4908,12,3.6723
ORD061509,REST0348,CUST13330,COUR2982,-37.8030375,145.004495,2020-11-10,21:57:21,0,0,Motorbike,"[('mutton curry', 3), ('chicken tikka', 2)]",40,34.205999999999996,6698,13,3.9457
ORD101361,REST1034,CUST04222,COUR1256,-37.82070020000001,144.9849092,2020-09-30,17:44:10,0,0,Car,"[('manchurian', 1), ('mango lassi', 3)]",0,37.03,5230,13,4.0628
ORD209641,REST1034,CUST11182,COUR1886,-37.80368970000001,144.9549765,2020-08-27,07:54:43,0,0,Car,"[('manchurian', 3), ('dehati chicken', 3), ('palak paneer', 3)]",10,108.70200000000001,2435,6,3.0531
ORD054923,REST1046,CUST05987,COUR3513,-37.8197947,144.9731057,2020-11-22,23:20:26,0,1,Motorbike,"[('chicken curry', 1), ('fried rice', 2), ('murgh ghee roast', 1), ('french fries', 3)]",40,51.558,3442,7,4.4008
ORD307251,REST1034,CUST01271,COUR4400,-37.8050795,144.9745234,2020-10-12,14:26:22,0,0,Bike,"[('mango lassi', 3), ('paneer lababdar', 1)]",45,19.993,3886,19,4.659
ORD138443,REST1046,CUST07372,COUR3088,-37.8214785,144.9693451,2020-03-05,15:25:42,0,0,Car,"[('murgh ghee roast', 2), ('fried rice', 3), ('chicken curry', 1)]",20,39.472,3225,8,3.1071
ORD253703,REST1046,CUST12566,COUR4617,-37.8187501,144.9532499,2020-06-14,22:40:52,0,1,Car,"[('murgh ghee roast', 2), ('chicken curry', 1), ('draught beer', 3), ('fried rice', 1)]",10,46.62,1991,5,4.3534
ORD030183,REST0348,CUST06165,COUR0718,-37.8134313,144.944043,2020-09-30,06:27:41,0,0,Motorbike,"[('chole bhature', 3), ('makke ki roti', 1), ('kheer', 2), ('dal makhani', 1)]",0,106.19,861,2,2.9235
ORD047520,REST0348,CUST01083,COUR4782,-37.813342,145.0148451,2020-10-20,06:31:38,0,0,Car,"[('paneer tikka', 3), ('mutton curry', 1), ('paan ice cream', 2)]",10,85.275,7523,18,4.783
ORD272174,REST1455,CUST02736,COUR2131,-37.8099503,144.95043619999996,2020-11-07,09:37:34,0,1,Car,"[('chicken stew', 3), ('chicken curry', 2), ('beef fry', 1), ('fish', 2)]",0,140.51,2890,7,4.5981
ORD149110,REST1046,CUST04574,COUR4668,-37.8135461,144.9488599,2020-06-18,21:01:58,0,0,Bike,"[('french fries', 1), ('fish fingers', 1)]",0,36.84,3946,20,4.6122
ORD283240,REST0931,CUST08832,COUR0845,-37.8066144,144.96146159999995,2020-02-20,22:13:11,0,0,Bike,"[('chole', 2), ('filter coffee', 1), ('idli', 1)]",0,79.41,2293,11,3.9553
ORD033545,REST1046,CUST08502,COUR0371,-37.8152021,144.9368419,2020-01-23,15:41:32,0,0,Bike,"[('beef chilli', 2), ('chicken curry', 2)]",0,31.12,1438,7,3.3631
ORD154489,REST0931,CUST02224,COUR3775,-37.8189921,144.9538801,2020-08-09,07:46:48,0,1,Bike,"[('butter masala dosa', 3), ('upma', 1)]",40,28.715999999999998,3744,19,8.86305
ORD124716,REST1455,CUST06013,COUR1931,-37.8078257,144.99198769999995,2020-10-22,18:07:54,1,0,Bike,"[('appam', 2), ('fish', 2), ('egg roast', 2)]",45,49.313,2378,12,5.577000000000001
ORD203754,REST1034,CUST06500,COUR2305,-37.8252403,144.982747,2020-01-03,03:45:29,0,0,Bike,"[('mango lassi', 1), ('butter chicken', 2), ('palak paneer', 1), ('chilli chicken', 2)]",10,97.848,5351,27,5.4793
ORD303937,REST0348,CUST13661,COUR0427,-37.8170903,144.9606255,2020-03-11,20:02:38,0,0,Bike,"[('lassi', 2), ('kheer', 1), ('mutton curry', 1), ('chicken tikka', 3)]",10,69.957,1944,10,3.7637
ORD013728,REST0931,CUST05457,COUR4631,-37.811975,144.965722,2020-01-29,15:45:29,0,0,Car,"[('butter masala dosa', 2), ('tea', 1)]",0,32.94,2279,5,3.4251
ORD067266,REST1455,CUST04416,COUR3082,-37.8252333,144.9451897,2020-10-18,14:58:01,0,1,Bike,"[('sea food', 3), ('beef fry', 2)]",10,70.083,4683,23,6.3276
ORD135806,REST0348,CUST00416,COUR2943,-37.81550170000001,144.97735269999995,2020-03-06,19:19:07,1,0,Motorbike,"[('mutton curry', 1), ('paneer tikka', 2), ('lassi', 1), ('paan ice cream', 2)]",45,47.19,3591,7,2.41855
ORD326224,REST1034,CUST04189,COUR4949,-37.8260379,144.9837062,2020-05-25,10:13:11,0,0,Car,"[('paneer lababdar', 3), ('dehati chicken', 1)]",0,34.35,5260,13,4.1855
ORD339259,REST1034,CUST12650,COUR0680,-37.8032915,144.94979469999996,2020-07-08,04:48:47,0,0,Car,"[('manchurian', 2), ('mango lassi', 2), ('dehati chicken', 2)]",40,29.808000000000003,2216,5,3.083
ORD133938,REST1455,CUST01384,COUR0603,-37.8124511,144.9671477,2020-01-29,15:13:50,0,0,Bike,"[('sea food', 3), ('beef fry', 1)]",40,36.132,1868,9,3.8567
ORD068245,REST1455,CUST00297,COUR2689,-37.8026916,144.95606,2020-06-16,06:19:46,0,0,Motorbike,"[('beef fry', 2), ('fish', 3), ('chicken stew', 2), ('appam', 1)]",0,118.7,2030,4,3.0414
ORD343607,REST0348,CUST11778,COUR1015,-37.8196679,144.97141090000005,2020-04-09,19:27:01,1,0,Motorbike,"[('dal makhani', 1), ('chole bhature', 1)]",45,15.862,3110,6,4.9624
ORD113186,REST1034,CUST04211,COUR2510,-37.8244389,144.9799518,2020-10-18,14:02:38,0,1,Car,"[('chilli chicken', 2), ('dehati chicken', 3), ('palak paneer', 2)]",20,73.336,4885,12,5.0116
ORD072182,REST0348,CUST00060,COUR1912,-37.8027411,144.9666603,2020-06-20,22:21:05,0,1,Motorbike,"[('chicken tikka', 2), ('makke ki roti', 1)]",0,46.01,3433,7,4.4711
ORD018657,REST1034,CUST11237,COUR2908,-37.80582929999999,144.9308676,2020-04-18,15:21:45,0,1,Bike,"[('butter chicken', 1), ('chilli chicken', 3), ('palak paneer', 3), ('manchurian', 3)]",0,167.45,1327,7,4.3451
ORD166836,REST1034,CUST04383,COUR3529,-37.8244191,144.9733024,2020-07-18,12:31:38,1,1,Motorbike,"[('butter chicken', 1), ('palak paneer', 1), ('chilli chicken', 2)]",40,45.03,4452,9,6.3181
ORD161041,REST0348,CUST00290,COUR1220,-37.8062355,144.9335839,2020-12-24,14:14:30,0,0,Bike,"[('mutton curry', 1), ('chole bhature', 3)]",0,54.96,2298,11,5.5104
ORD131902,REST0931,CUST01458,COUR1496,-37.8150106,144.9695624,2020-04-17,08:50:06,0,0,Motorbike,"[('chole', 2), ('tea', 3), ('butter masala dosa', 1)]",40,58.86600000000001,2335,5,2.9289
ORD254918,REST1455,CUST06470,COUR0956,-37.8167289,144.9948716,2020-12-05,03:41:32,0,1,Bike,"[('sea food', 1), ('chicken stew', 1)]",45,19.344,3535,18,5.5568
ORD225431,REST0931,CUST12951,COUR3186,-37.8115439,144.95206530000004,2020-02-01,00:59:20,0,1,Bike,"[('idli', 1), ('butter masala dosa', 2), ('upma', 2), ('masala dosa', 3)]",0,148.96,3351,17,5.3167
ORD231796,REST1046,CUST07892,COUR0953,-37.8166038,144.9869954,2020-09-12,22:13:11,0,1,Motorbike,"[('draught beer', 2), ('chicken curry', 2), ('murgh ghee roast', 2)]",0,44.9,4868,10,4.4538
ORD027940,REST1455,CUST06963,COUR1590,-37.8053499,144.95080280000005,2020-08-08,00:51:25,0,1,Car,"[('fish', 3), ('appam', 1)]",0,41.44,2706,6,4.5927
ORD162613,REST1046,CUST11044,COUR0838,-37.80854779999999,144.9533085,2020-07-30,06:51:25,0,0,Car,"[('chicken curry', 3), ('beef chilli', 3)]",20,37.344,3136,8,3.6338
ORD122935,REST1046,CUST04422,COUR2867,-37.8194126,144.9320645,2020-06-11,02:14:30,0,0,Bike,"[('fish fingers', 1), ('french fries', 1), ('draught beer', 2), ('beef chilli', 1)]",0,57.44,3386,17,4.3315
ORD300177,REST0348,CUST08929,COUR0378,-37.8055175,144.9979872,2020-10-18,18:47:28,1,1,Bike,"[('paan ice cream', 1), ('dal makhani', 1)]",40,17.862000000000002,5905,30,8.035
